"","peaks","fips","cases","county","state","Region","lat","lng","per_dem","median.income","unemployed.rate"
"1","peak 1","01001",901.142857142857,"Autauga","Alabama","South",32.5349,-86.6427,0.270183651422398,58233,4.9
"2","peak 1","01003",2379.28571428571,"Baldwin","Alabama","South",30.7275,-87.7226,0.22409029987509,59871,5.6
"3","peak 1","01005",531.714285714286,"Barbour","Alabama","South",31.8696,-85.3932,0.457881726563986,35972,7
"4","peak 1","01007",297.571428571429,"Bibb","Alabama","South",32.9986,-87.1265,0.206982803543512,47918,6.6
"5","peak 1","01009",580.142857142857,"Blount","Alabama","South",33.9809,-86.5674,0.0956937799043062,52902,4.1
"6","peak 1","01011",408,"Bullock","Alabama","South",32.1005,-85.7157,0.747019293301539,31906,5.5
"7","peak 1","01013",706.571428571429,"Butler","Alabama","South",31.7524,-86.6803,0.41789629005059,39944,8.8
"8","peak 1","01015",957.142857142857,"Calhoun","Alabama","South",33.7714,-85.826,0.298452425318243,47747,7.1
"9","peak 1","01017",791.428571428571,"Chambers","Alabama","South",32.9143,-85.392,0.416448573671814,42015,6.8
"10","peak 1","01019",194.142857142857,"Cherokee","Alabama","South",34.1759,-85.6038,0.132021786846598,45982,4.6
"11","peak 1","01021",549.142857142857,"Chilton","Alabama","South",32.8479,-86.7188,0.159140341791818,49692,5
"12","peak 1","01023",249.428571428571,"Choctaw","Alabama","South",32.0198,-88.2632,0.418944265809218,39808,6.7
"13","peak 1","01025",419.857142857143,"Clarke","Alabama","South",31.6767,-87.8308,0.438142367719833,43822,9
"14","peak 1","01027",142.571428571429,"Clay","Alabama","South",33.269,-85.8606,0.182828282828283,40562,4
"15","peak 1","01029",86.4285714285714,"Cleburne","Alabama","South",33.6745,-85.5188,0.0933997509339975,51276,4.6
"16","peak 1","01031",597.428571428571,"Coffee","Alabama","South",31.4027,-85.9882,0.227878787878788,57299,4.4
"17","peak 1","01033",834.428571428571,"Colbert","Alabama","South",34.7005,-87.8049,0.299182385426379,46683,6.6
"18","peak 1","01035",316.428571428571,"Conecuh","Alabama","South",31.4292,-86.9937,0.460487501940692,41539,7.3
"19","peak 1","01037",80.7142857142857,"Coosa","Alabama","South",32.9362,-86.2477,0.327797043256069,42024,5.5
"20","peak 1","01039",647.142857142857,"Covington","Alabama","South",31.2485,-86.4513,0.156110154905336,44836,4.9
"21","peak 1","01041",213.857142857143,"Crenshaw","Alabama","South",31.7315,-86.3135,0.256914009369805,43309,5.7
"22","peak 1","01043",908.714285714286,"Cullman","Alabama","South",34.1319,-86.8676,0.106998638025376,50897,4.3
"23","peak 1","01045",606.714285714286,"Dale","Alabama","South",31.4318,-85.611,0.261931300030398,45120,4.9
"24","peak 1","01047",1216,"Dallas","Alabama","South",32.326,-87.1065,0.6846171070309,34034,10.7
"25","peak 1","01049",1421.71428571429,"DeKalb","Alabama","South",34.4598,-85.8041,0.145830494617795,44277,4.5
"26","peak 1","01051",1400.57142857143,"Elmore","Alabama","South",32.5966,-86.1492,0.252668778942237,62310,4.9
"27","peak 1","01053",772,"Escambia","Alabama","South",31.1261,-87.1616,0.309113764927718,42712,6
"28","peak 1","01055",1534.28571428571,"Etowah","Alabama","South",34.0453,-86.0348,0.242352497485753,43047,7.7
"29","peak 1","01057",133.428571428571,"Fayette","Alabama","South",33.7212,-87.7389,0.159137577002053,44212,5
"30","peak 1","01059",1060.71428571429,"Franklin","Alabama","South",34.4417,-87.8437,0.165845126411194,44874,4.4
"31","peak 1","01061",170,"Geneva","Alabama","South",31.0951,-85.8391,0.127142287764049,43089,4.1
"32","peak 1","01063",227.571428571429,"Greene","Alabama","South",32.8531,-87.9522,0.813403141361257,28699,10.9
"33","peak 1","01065",415.142857142857,"Hale","Alabama","South",32.7627,-87.6291,0.591643524362535,40745,9.4
"34","peak 1","01067",210,"Henry","Alabama","South",31.5147,-85.2414,0.280275328027533,48597,4.8
"35","peak 1","01069",1010.14285714286,"Houston","Alabama","South",31.1532,-85.3025,0.279752236155329,50138,5.4
"36","peak 1","01071",619.428571428571,"Jackson","Alabama","South",34.7795,-85.9994,0.157260111694026,44322,5.3
"37","peak 1","01073",9692.85714285714,"Jefferson","Alabama","South",33.5543,-86.8964,0.557585131717856,54127,6.2
"38","peak 1","01075",153,"Lamar","Alabama","South",33.7791,-88.097,0.135965522035312,42686,4.9
"39","peak 1","01077",838.571428571429,"Lauderdale","Alabama","South",34.9014,-87.654,0.268725050181556,48188,5.5
"40","peak 1","01079",222,"Lawrence","Alabama","South",34.5217,-87.311,0.222194498159815,47797,4.9
"41","peak 1","01081",2248.57142857143,"Lee","Alabama","South",32.6011,-85.3555,0.38992848045459,54160,5.2
"42","peak 1","01083",961.142857142857,"Limestone","Alabama","South",34.8101,-86.9814,0.277688636132832,64729,4.3
"43","peak 1","01085",533.428571428571,"Lowndes","Alabama","South",32.1547,-86.6501,0.727432333577176,33930,13.3
"44","peak 1","01087",280.857142857143,"Macon","Alabama","South",32.3859,-85.6927,0.814857273873667,34281,9.6
"45","peak 1","01089",3953.71428571429,"Madison","Alabama","South",34.7631,-86.5502,0.44815600178675,68609,4.6
"46","peak 1","01091",453.571428571429,"Marengo","Alabama","South",32.2477,-87.7895,0.50348623853211,38838,6.2
"47","peak 1","01093",465.714285714286,"Marion","Alabama","South",34.1366,-87.8871,0.105960744549866,44675,5.1
"48","peak 1","01095",2565.71428571429,"Marshall","Alabama","South",34.367,-86.3066,0.149867608120035,48913,4.2
"49","peak 1","01097",6725,"Mobile","Alabama","South",30.7872,-88.2058,0.433895306938045,49492,7.9
"50","peak 1","01099",369,"Monroe","Alabama","South",31.5709,-87.3655,0.417604049493813,40005,8.2
"51","peak 1","01101",5493.42857142857,"Montgomery","Alabama","South",32.2203,-86.2076,0.650894199053854,52711,7.8
"52","peak 1","01103",1850,"Morgan","Alabama","South",34.4535,-86.8529,0.24634228062991,54355,4.5
"53","peak 1","01105",373.428571428571,"Perry","Alabama","South",32.6385,-87.2944,0.738049713193117,29572,10.9
"54","peak 1","01107",321.571428571429,"Pickens","Alabama","South",33.2808,-88.0888,0.416011584609019,40249,6.5
"55","peak 1","01109",578.571428571429,"Pike","Alabama","South",31.8027,-85.9409,0.407196011848855,41271,4.9
"56","peak 1","01111",355.142857142857,"Randolph","Alabama","South",33.2938,-85.4591,0.203285041985789,42922,4.7
"57","peak 1","01113",1010,"Russell","Alabama","South",32.2884,-85.1849,0.526419428946505,43670,5.1
"58","peak 1","01115",956.714285714286,"St. Clair","Alabama","South",33.7157,-86.3146,0.17425350464661,65403,4.9
"59","peak 1","01117",2560.28571428571,"Shelby","Alabama","South",33.2643,-86.6607,0.289412788168769,77801,3.9
"60","peak 1","01119",330.714285714286,"Sumter","Alabama","South",32.5911,-88.1988,0.738833253854713,29209,7
"61","peak 1","01121",736.714285714286,"Talladega","Alabama","South",33.3801,-86.1659,0.368393012365757,47719,7
"62","peak 1","01123",765.285714285714,"Tallapoosa","Alabama","South",32.8624,-85.7975,0.279119622695441,47100,6.9
"63","peak 1","01125",3390.71428571429,"Tuscaloosa","Alabama","South",33.2896,-87.5251,0.418810717295835,52307,6.6
"64","peak 1","01127",1324.57142857143,"Walker","Alabama","South",33.8033,-87.2973,0.155085017645172,45991,5.8
"65","peak 1","01129",250.142857142857,"Washington","Alabama","South",31.4076,-88.2078,0.254393871113114,48864,8
"66","peak 1","01131",375.285714285714,"Wilcox","Alabama","South",31.9893,-87.3082,0.685753006945621,30998,14.7
"67","peak 1","01133",373.714285714286,"Winston","Alabama","South",34.1492,-87.3737,0.0863169088975541,40827,4.7
"68","peak 1","02013",2.85714285714286,"Aleutians East Borough","Alaska","West",55.3665,-161.9813,NA,66923,4
"69","peak 1","02016",85.2857142857143,"Aleutians West Census Area","Alaska","West",52.798,-106.6061,NA,84726,4.5
"70","peak 1","02020",1222.28571428571,"Anchorage","Alaska","West",61.1508,-149.1091,NA,82512,7.4
"71","peak 1","02050",19.2857142857143,"Bethel Census Area","Alaska","West",60.9132,-159.818,NA,48262,11.6
"72","peak 1","02068",3.14285714285714,"Denali Borough","Alaska","West",63.6716,-150.0117,NA,78434,15.7
"73","peak 1","02070",21,"Dillingham Census Area","Alaska","West",59.7991,-158.2351,NA,57436,8.2
"74","peak 1","02090",373,"Fairbanks North Star Borough","Alaska","West",64.8078,-146.5654,NA,74076,6.4
"75","peak 1","02100",7.28571428571429,"Haines Borough","Alaska","West",59.1199,-135.5,NA,62548,15.6
"76","peak 1","02110",107.428571428571,"Juneau City and Borough","Alaska","West",58.4546,-134.1739,NA,85419,6.6
"77","peak 1","02122",300.571428571429,"Kenai Peninsula Borough","Alaska","West",60.2654,-151.5652,NA,68625,9.1
"78","peak 1","02130",40.1428571428571,"Ketchikan Gateway Borough","Alaska","West",55.5852,-130.9288,NA,75706,9.6
"79","peak 1","02150",13.8571428571429,"Kodiak Island Borough","Alaska","West",57.677,-153.7806,NA,79669,6.2
"80","peak 1","02158",3,"Kusilvak Census Area","Alaska","West",62.155,-163.3826,NA,35369,19.4
"81","peak 1","02170",213.571428571429,"Matanuska-Susitna Borough","Alaska","West",62.3162,-149.5714,NA,75856,8.3
"82","peak 1","02180",19.4285714285714,"Nome Census Area","Alaska","West",64.9111,-164.0272,NA,58464,10.5
"83","peak 1","02185",8.57142857142857,"North Slope Borough","Alaska","West",69.3122,-153.481,NA,84784,5.9
"84","peak 1","02188",10.5714285714286,"Northwest Arctic Borough","Alaska","West",67.053,-159.721,NA,61660,12
"85","peak 1","02195",9,"Petersburg Borough","Alaska","West",57.1195,-132.9345,NA,71296,8.7
"86","peak 1","02198",3.14285714285714,"Prince of Wales-Hyder Census Area","Alaska","West",55.7997,-133.0192,NA,50049,9.2
"87","peak 1","02220",26.4285714285714,"Sitka City and Borough","Alaska","West",57.2401,-135.3153,NA,80660,6.9
"88","peak 1","02240",24.4285714285714,"Southeast Fairbanks Census Area","Alaska","West",63.8763,-143.2118,NA,69646,7.4
"89","peak 1","02261",69.8571428571429,"Valdez-Cordova Census Area","Alaska","West",61.562,-144.4686,NA,74574,8.7
"90","peak 1","02275",8,"Wrangell City and Borough","Alaska","West",56.3317,-132.0223,NA,62496,8.4
"91","peak 1","02290",35.4285714285714,"Yukon-Koyukuk Census Area","Alaska","West",65.5086,-151.3896,NA,42063,12.1
"92","peak 1","02997",67.8571428571429,"Bristol Bay plus Lake and Peninsula","Alaska","West",NA,NA,NA,NA,NA
"93","peak 1","02998",1.66666666666667,"Yakutat plus Hoonah-Angoon","Alaska","West",NA,NA,NA,NA,NA
"94","peak 1","04001",2836.42857142857,"Apache","Arizona","West",35.3955,-109.4888,0.662052695904272,35386,12.8
"95","peak 1","04003",1318.85714285714,"Cochise","Arizona","West",31.8796,-109.7512,0.392439601144312,48650,7
"96","peak 1","04005",2780.28571428571,"Coconino","Arizona","West",35.8387,-111.7705,0.609412919586617,58301,9.7
"97","peak 1","04007",633.571428571429,"Gila","Arizona","West",33.7997,-110.8117,0.323108606113158,45980,7.7
"98","peak 1","04009",333.142857142857,"Graham","Arizona","West",32.9326,-109.8875,0.269005068018138,50685,6.3
"99","peak 1","04011",40.7142857142857,"Greenlee","Arizona","West",33.2152,-109.2402,0.320498915401302,68066,5.5
"100","peak 1","04012",450.714285714286,"La Paz","Arizona","West",33.7294,-113.9816,0.299731903485255,39407,7.1
"101","peak 1","04013",102724.285714286,"Maricopa","Arizona","West",33.349,-112.4915,0.502916923374286,68634,7.4
"102","peak 1","04015",2564.14285714286,"Mohave","Arizona","West",35.7041,-113.758,0.237151998471897,49712,10
"103","peak 1","04017",4962.71428571429,"Navajo","Arizona","West",35.3997,-110.3214,0.45155746094278,40676,10.1
"104","peak 1","04019",14252.2857142857,"Pima","Arizona","West",32.0974,-111.7899,0.585674095269187,56150,7.7
"105","peak 1","04021",7067,"Pinal","Arizona","West",32.9044,-111.3448,0.405897198938591,62067,7.5
"106","peak 1","04023",2433.71428571429,"Santa Cruz","Arizona","West",31.5259,-110.8465,0.671642554061653,47779,11.4
"107","peak 1","04025",1498.71428571429,"Yavapai","Arizona","West",34.5999,-112.554,0.346189279731993,54242,7.5
"108","peak 1","04027",9850,"Yuma","Arizona","West",32.7695,-113.9056,0.460629808654864,47024,17.1
"109","peak 1","05001",154.428571428571,"Arkansas","Arkansas","South",34.2908,-91.3749,0.28893833439288,52539,4
"110","peak 1","05003",155.142857142857,"Ashley","Arkansas","South",33.1912,-91.7685,0.26810497098158,47744,9.3
"111","peak 1","05005",49.8571428571429,"Baxter","Arkansas","South",36.2872,-92.337,0.220640738801352,41950,5.9
"112","peak 1","05007",4052.85714285714,"Benton","Arkansas","South",36.3387,-94.2561,0.352333377810394,70775,4.5
"113","peak 1","05009",93.2857142857143,"Boone","Arkansas","South",36.3086,-93.0915,0.17903470842585,50083,5.3
"114","peak 1","05011",107.714285714286,"Bradley","Arkansas","South",33.4664,-92.1624,0.33223864258347,39982,5.8
"115","peak 1","05013",8.14285714285714,"Calhoun","Arkansas","South",33.558,-92.503,0.219523373052246,48415,5.2
"116","peak 1","05015",302.857142857143,"Carroll","Arkansas","South",36.341,-93.5382,0.34101890311096,43841,5.7
"117","peak 1","05017",279.142857142857,"Chicot","Arkansas","South",33.2672,-91.294,0.550816475749452,37014,10.3
"118","peak 1","05019",117.285714285714,"Clark","Arkansas","South",34.051,-93.1764,0.409529481834425,44105,5.9
"119","peak 1","05021",97.7142857142857,"Clay","Arkansas","South",36.3683,-90.4175,0.185606791433533,40686,6
"120","peak 1","05023",164.857142857143,"Cleburne","Arkansas","South",35.5381,-92.0267,0.156782334384858,46214,7.6
"121","peak 1","05025",50.7142857142857,"Cleveland","Arkansas","South",33.8984,-92.1852,0.180833333333333,53773,6.1
"122","peak 1","05027",152.142857142857,"Columbia","Arkansas","South",33.2143,-93.2273,0.326601671309192,42964,6.8
"123","peak 1","05029",118,"Conway","Arkansas","South",35.2622,-92.7013,0.301093839953944,46924,6
"124","peak 1","05031",858,"Craighead","Arkansas","South",35.8308,-90.6328,0.309547921373114,47766,5.3
"125","peak 1","05033",402.285714285714,"Crawford","Arkansas","South",35.5885,-94.2429,0.205844506247146,44600,5.4
"126","peak 1","05035",1026.71428571429,"Crittenden","Arkansas","South",35.2079,-90.3089,0.520193071424207,41976,8.3
"127","peak 1","05037",132.428571428571,"Cross","Arkansas","South",35.2957,-90.7712,0.255257850763469,45273,6.1
"128","peak 1","05039",25,"Dallas","Arkansas","South",33.9698,-92.6544,0.363533408833522,41314,5.3
"129","peak 1","05041",120.571428571429,"Desha","Arkansas","South",33.8333,-91.254,0.484149855907781,37005,7
"130","peak 1","05043",123.857142857143,"Drew","Arkansas","South",33.5895,-91.72,0.351187029530979,44162,6.9
"131","peak 1","05045",993.428571428571,"Faulkner","Arkansas","South",35.147,-92.332,0.337087528477989,58482,5.4
"132","peak 1","05047",61.5714285714286,"Franklin","Arkansas","South",35.5123,-93.8906,0.182353766306635,45670,5.6
"133","peak 1","05049",21.7142857142857,"Fulton","Arkansas","South",36.3817,-91.8182,0.202187927329557,32926,5.1
"134","peak 1","05051",578,"Garland","Arkansas","South",34.5767,-93.1504,0.317767370302496,45786,8
"135","peak 1","05053",98,"Grant","Arkansas","South",34.29,-92.4236,0.154634146341463,58566,5.2
"136","peak 1","05055",202,"Greene","Arkansas","South",36.1176,-90.559,0.189937888198758,47098,6
"137","peak 1","05057",149.857142857143,"Hempstead","Arkansas","South",33.7353,-93.6685,0.312207943925234,40867,5.2
"138","peak 1","05059",1375.14285714286,"Hot Spring","Arkansas","South",34.3176,-92.946,0.245440789997611,45860,5.8
"139","peak 1","05061",212.285714285714,"Howard","Arkansas","South",34.0888,-93.9935,0.277203144393877,41427,5
"140","peak 1","05063",156.428571428571,"Independence","Arkansas","South",35.7415,-91.5697,0.193357221609702,47903,5.8
"141","peak 1","05065",30.7142857142857,"Izard","Arkansas","South",36.0949,-91.9134,0.175731497418244,40233,8.4
"142","peak 1","05067",48.7142857142857,"Jackson","Arkansas","South",35.5992,-91.2145,0.268120212139069,38636,7.1
"143","peak 1","05069",1100.71428571429,"Jefferson","Arkansas","South",34.2688,-91.9315,0.595476587964067,40555,8
"144","peak 1","05071",535.571428571429,"Johnson","Arkansas","South",35.5701,-93.4599,0.240366392924826,40396,6.3
"145","peak 1","05073",41.8571428571429,"Lafayette","Arkansas","South",33.2409,-93.6071,0.31317655841732,37164,7.6
"146","peak 1","05075",149.714285714286,"Lawrence","Arkansas","South",36.0412,-91.1071,0.184394741335155,39604,6.1
"147","peak 1","05077",868.857142857143,"Lee","Arkansas","South",34.7806,-90.7821,0.499648876404494,30421,7.5
"148","peak 1","05079",1136.42857142857,"Lincoln","Arkansas","South",33.9575,-91.7333,0.266322580645161,44272,6
"149","peak 1","05081",73.4285714285714,"Little River","Arkansas","South",33.7005,-94.2343,0.236816689202241,43257,6.4
"150","peak 1","05083",115.857142857143,"Logan","Arkansas","South",35.2153,-93.7162,0.187720364741641,42249,6.6
"151","peak 1","05085",299.428571428571,"Lonoke","Arkansas","South",34.7542,-91.8888,0.218054921401083,62782,5.5
"152","peak 1","05087",239.285714285714,"Madison","Arkansas","South",36.011,-93.7245,0.212624132771052,48016,3.9
"153","peak 1","05089",17.1428571428571,"Marion","Arkansas","South",36.2684,-92.6842,0.204051712648274,38760,6.4
"154","peak 1","05091",382,"Miller","Arkansas","South",33.3121,-93.8916,0.256821344303951,50905,6.9
"155","peak 1","05093",503.142857142857,"Mississippi","Arkansas","South",35.7638,-90.0542,0.369308053800032,39990,9
"156","peak 1","05095",37.8571428571429,"Monroe","Arkansas","South",34.6778,-91.2039,0.407315340909091,34289,6.7
"157","peak 1","05097",17.2857142857143,"Montgomery","Arkansas","South",34.5388,-93.6596,0.188742576813839,39591,6.8
"158","peak 1","05099",119.142857142857,"Nevada","Arkansas","South",33.664,-93.3072,0.320428826682549,36528,5.9
"159","peak 1","05101",44.2857142857143,"Newton","Arkansas","South",35.92,-93.2179,0.177338669334667,37648,5
"160","peak 1","05103",58.1428571428571,"Ouachita","Arkansas","South",33.5934,-92.8819,0.414892512202721,46393,6
"161","peak 1","05105",40.2857142857143,"Perry","Arkansas","South",34.9474,-92.9315,0.218716230819105,50560,5.5
"162","peak 1","05107",228.285714285714,"Phillips","Arkansas","South",34.4283,-90.848,0.580422941364947,31521,9.1
"163","peak 1","05109",46.7142857142857,"Pike","Arkansas","South",34.1635,-93.6563,0.151672162034856,44426,5.9
"164","peak 1","05111",109.428571428571,"Poinsett","Arkansas","South",35.574,-90.663,0.189336524398351,40536,5.5
"165","peak 1","05113",110.857142857143,"Polk","Arkansas","South",34.4859,-94.2281,0.146760895170789,39722,6.6
"166","peak 1","05115",965.857142857143,"Pope","Arkansas","South",35.4476,-93.0342,0.236247544204322,47519,5.9
"167","peak 1","05117",53.4285714285714,"Prairie","Arkansas","South",34.8298,-91.5528,0.187124463519313,46205,5.3
"168","peak 1","05119",4050.42857142857,"Pulaski","Arkansas","South",34.77,-92.3119,0.59984348890301,52684,7.4
"169","peak 1","05121",120.857142857143,"Randolph","Arkansas","South",36.3415,-91.0277,0.178361714621257,42875,5.9
"170","peak 1","05123",998.285714285714,"St. Francis","Arkansas","South",35.022,-90.7478,0.507034327518289,34389,7.9
"171","peak 1","05125",671.142857142857,"Saline","Arkansas","South",34.6466,-92.6765,0.281957197282256,66944,5.1
"172","peak 1","05127",25.1428571428571,"Scott","Arkansas","South",34.8608,-94.0633,0.136018023092087,38065,4.5
"173","peak 1","05129",21,"Searcy","Arkansas","South",35.9109,-92.6996,0.146305051007713,34712,6.4
"174","peak 1","05131",1275.57142857143,"Sebastian","Arkansas","South",35.1993,-94.2742,0.307318625371235,48945,6
"175","peak 1","05133",884.571428571429,"Sevier","Arkansas","South",33.9972,-94.2412,0.214532871972318,43493,5.8
"176","peak 1","05135",85.8571428571429,"Sharp","Arkansas","South",36.1612,-91.4799,0.1847739888977,37591,7.1
"177","peak 1","05137",38.5714285714286,"Stone","Arkansas","South",35.8599,-92.1567,0.198720107780397,36930,7.1
"178","peak 1","05139",343.714285714286,"Union","Arkansas","South",33.1713,-92.5972,0.336243752634431,46602,8.3
"179","peak 1","05141",40.8571428571429,"Van Buren","Arkansas","South",35.5806,-92.5157,0.20404764954528,38096,7.1
"180","peak 1","05143",5445.85714285714,"Washington","Arkansas","South",35.9791,-94.2156,0.46489720577939,52158,4.6
"181","peak 1","05145",190.571428571429,"White","Arkansas","South",35.2563,-91.7455,0.193556742755383,46388,6.2
"182","peak 1","05147",17.1428571428571,"Woodruff","Arkansas","South",35.1863,-91.2431,0.345718901453958,36568,5.8
"183","peak 1","05149",938.285714285714,"Yell","Arkansas","South",35.0026,-93.4112,0.19047619047619,44469,5.1
"184","peak 1","06001",9887.42857142857,"Alameda","California","West",37.6469,-121.8889,0.802296249727225,107589,8.8
"185","peak 1","06003",2,"Alpine","California","West",38.5972,-119.8207,0.642375168690958,58112,11.2
"186","peak 1","06005",66.5714285714286,"Amador","California","West",38.4464,-120.6511,0.365572594386154,62640,9.1
"187","peak 1","06007",718.428571428571,"Butte","California","West",39.6669,-121.6007,0.494169067638815,58394,9.2
"188","peak 1","06009",97.7142857142857,"Calaveras","California","West",38.2046,-120.5541,0.369827713149757,68248,7.6
"189","peak 1","06011",248.571428571429,"Colusa","California","West",39.1775,-122.237,0.406741290403723,59048,16
"190","peak 1","06013",6381.57142857143,"Contra Costa","California","West",37.9191,-121.9278,0.716387660650689,106555,8.9
"191","peak 1","06015",79.7142857142857,"Del Norte","California","West",41.7431,-123.8972,0.408400279427174,48979,9.5
"192","peak 1","06017",494,"El Dorado","California","West",38.7787,-120.5247,0.444479842945461,86202,8.3
"193","peak 1","06019",11767.2857142857,"Fresno","California","West",36.7582,-119.6493,0.529112494483415,56926,11.3
"194","peak 1","06021",237.428571428571,"Glenn","California","West",39.5982,-122.392,0.353790294013461,55682,8.9
"195","peak 1","06023",203.285714285714,"Humboldt","California","West",40.6993,-123.8756,0.650432963328878,51134,8.4
"196","peak 1","06025",8861.57142857143,"Imperial","California","West",33.0395,-115.3654,0.611410839592369,48102,22.5
"197","peak 1","06027",39.1428571428571,"Inyo","California","West",36.5111,-117.4107,0.48876700769961,59605,7.8
"198","peak 1","06029",13434,"Kern","California","West",35.3429,-118.7299,0.436941807054445,53245,12.5
"199","peak 1","06031",3652.71428571429,"Kings","California","West",36.0753,-119.8155,0.426353230881481,57297,11.6
"200","peak 1","06033",162.714285714286,"Lake","California","West",39.0996,-122.7532,0.518784722222222,46897,9.6
"201","peak 1","06035",535,"Lassen","California","West",40.6736,-120.5943,0.233541927409262,53613,7.1
"202","peak 1","06037",166787.571428571,"Los Angeles","California","West",34.3207,-118.2248,0.710431686315497,72721,12.8
"203","peak 1","06039",1583,"Madera","California","West",37.218,-119.7627,0.431257213059827,61105,10.8
"204","peak 1","06041",4515.42857142857,"Marin","California","West",38.0734,-122.7234,0.82340934910559,112069,6.7
"205","peak 1","06043",43.1428571428571,"Mariposa","California","West",37.5815,-119.9054,0.397665369649805,52760,10.9
"206","peak 1","06045",236.571428571429,"Mendocino","California","West",39.4402,-123.3915,0.664159128669005,52309,8.9
"207","peak 1","06047",3051.28571428571,"Merced","California","West",37.1919,-120.7177,0.541091881026275,59733,12.2
"208","peak 1","06051",98.5714285714286,"Mono","California","West",37.9391,-118.8868,0.595665726584533,66226,11.8
"209","peak 1","06053",3689,"Monterey","California","West",36.2172,-121.2392,0.695331425468169,76509,10.8
"210","peak 1","06055",702.857142857143,"Napa","California","West",38.5065,-122.3305,0.690732370150578,90230,8.7
"211","peak 1","06057",245.571428571429,"Nevada","California","West",39.3014,-120.7685,0.561633043961815,69550,8
"212","peak 1","06059",32433.8571428571,"Orange","California","West",33.703,-117.7611,0.534925167162266,95761,8.8
"213","peak 1","06061",1523.85714285714,"Placer","California","West",39.0635,-120.7175,0.45472880685227,97688,7.3
"214","peak 1","06063",19.7142857142857,"Plumas","California","West",40.0046,-120.8385,0.405206112295665,59376,10.7
"215","peak 1","06065",32870.5714285714,"Riverside","California","West",33.7437,-115.9938,0.529982251775826,72905,9.9
"216","peak 1","06067",8188,"Sacramento","California","West",38.4493,-121.3443,0.613690849099946,71891,9.3
"217","peak 1","06069",504.714285714286,"San Benito","California","West",36.6057,-121.075,0.611637347767253,84209,9.9
"218","peak 1","06071",26876.7142857143,"San Bernardino","California","West",34.8414,-116.1784,0.542088470992269,67398,9.4
"219","peak 1","06073",25656.2857142857,"San Diego","California","West",33.0341,-116.7353,0.602258069752429,83576,9.2
"220","peak 1","06075",5587.14285714286,"San Francisco","California","West",37.7562,-122.443,0.852743664563499,121795,7.8
"221","peak 1","06077",9600.57142857143,"San Joaquin","California","West",37.9348,-121.2714,0.558644168865252,68458,11.3
"222","peak 1","06079",1437.85714285714,"San Luis Obispo","California","West",35.3871,-120.4045,0.55304012374672,76599,7.7
"223","peak 1","06081",4841.14285714286,"San Mateo","California","West",37.4229,-122.329,0.778883727394705,135234,6.9
"224","peak 1","06083",5517.85714285714,"Santa Barbara","California","West",34.6729,-120.0165,0.648880611918837,74530,8
"225","peak 1","06085",8469.71428571429,"Santa Clara","California","West",37.2318,-121.6951,0.72657379820863,132444,7
"226","peak 1","06087",869.714285714286,"Santa Cruz","California","West",37.0562,-122.0018,0.78901350866046,85770,9.5
"227","peak 1","06089",276.285714285714,"Shasta","California","West",40.7637,-122.0405,0.322927879440258,61464,8.7
"228","peak 1","06091",1,"Sierra","California","West",39.5803,-120.516,0.378238341968912,55862,8
"229","peak 1","06093",57.1428571428571,"Siskiyou","California","West",41.5927,-122.5404,0.40908315565032,45954,9.7
"230","peak 1","06095",3012.85714285714,"Solano","California","West",38.27,-121.9329,0.639548950352474,85704,9.5
"231","peak 1","06097",2369.85714285714,"Sonoma","California","West",38.5283,-122.8874,0.745336474658157,87084,7.9
"232","peak 1","06099",7312.28571428571,"Stanislaus","California","West",37.5591,-120.9977,0.492567806548893,62761,10.7
"233","peak 1","06101",594.142857142857,"Sutter","California","West",39.0346,-121.6948,0.407293621013133,60910,11
"234","peak 1","06103",155.142857142857,"Tehama","California","West",40.1256,-122.2341,0.310260784791616,51672,8.8
"235","peak 1","06105",3.57142857142857,"Trinity","California","West",40.6507,-123.1126,0.45557686161713,43881,8
"236","peak 1","06107",7746.42857142857,"Tulare","California","West",36.2201,-118.8005,0.450208401438379,56776,13.2
"237","peak 1","06109",115.571428571429,"Tuolumne","California","West",38.0276,-119.9548,0.394000197361929,64729,10.4
"238","peak 1","06111",6237.71428571429,"Ventura","California","West",34.4565,-119.0836,0.594722473255137,91446,8.6
"239","peak 1","06113",1278.14285714286,"Yolo","California","West",38.6866,-121.9016,0.694995064977792,70951,7.5
"240","peak 1","06115",337.857142857143,"Yuba","California","West",39.269,-121.3513,0.377010105079397,56607,10.5
"241","peak 1","08001",5347.42857142857,"Adams","Colorado","West",39.8736,-104.3378,0.566887025577122,75341,8
"242","peak 1","08003",214.571428571429,"Alamosa","Colorado","West",37.5729,-105.7883,0.481429303278689,38213,6.4
"243","peak 1","08005",6296,"Arapahoe","Colorado","West",39.6498,-104.3392,0.60998677834161,82364,7.9
"244","peak 1","08007",23.5714285714286,"Archuleta","Colorado","West",37.1935,-107.0483,0.408792650918635,57604,7.6
"245","peak 1","08009",14,"Baca","Colorado","West",37.3192,-102.5604,0.14247191011236,38945,2.3
"246","peak 1","08011",5,"Bent","Colorado","West",37.9551,-103.0717,0.321899736147757,35764,4.4
"247","peak 1","08013",1726.85714285714,"Boulder","Colorado","West",40.0925,-105.3577,0.771860793455953,88341,6.2
"248","peak 1","08014",372.285714285714,"Broomfield","Colorado","West",39.9541,-105.0527,0.623541773889175,106892,6.6
"249","peak 1","08015",230.571428571429,"Chaffee","Colorado","West",38.747,-106.1941,0.521980024786761,60331,6.3
"250","peak 1","08017",7.57142857142857,"Cheyenne","Colorado","West",38.828,-102.6035,0.115316901408451,52337,2.4
"251","peak 1","08019",24.4285714285714,"Clear Creek","Colorado","West",39.6891,-105.6444,0.550397067806964,79900,8.5
"252","peak 1","08021",21.2857142857143,"Conejos","Colorado","West",37.2007,-106.1916,0.452111700900069,40944,5.6
"253","peak 1","08023",22,"Costilla","Colorado","West",37.2781,-105.4282,0.626074498567335,34731,7.2
"254","peak 1","08025",72.1428571428571,"Crowley","Colorado","West",38.3266,-103.7845,0.249714285714286,38224,5.4
"255","peak 1","08027",9.85714285714286,"Custer","Colorado","West",38.1087,-105.3675,0.305998899284535,57381,5
"256","peak 1","08029",93.1428571428571,"Delta","Colorado","West",38.8614,-107.8629,0.303923593185338,51525,6.6
"257","peak 1","08031",8809.28571428571,"Denver","Colorado","West",39.7621,-104.8759,0.795509195662055,75456,8.2
"258","peak 1","08033",1.71428571428571,"Dolores","Colorado","West",37.7517,-108.5174,0.235334713595583,50232,6.9
"259","peak 1","08035",1436,"Douglas","Colorado","West",39.3297,-104.9296,0.451871553849542,123697,5.8
"260","peak 1","08037",903.714285714286,"Eagle","Colorado","West",39.6278,-106.6954,0.637886067261496,89268,9.5
"261","peak 1","08039",74.8571428571429,"Elbert","Colorado","West",39.2866,-104.136,0.236527419269873,101733,4.7
"262","peak 1","08041",3922.42857142857,"El Paso","Colorado","West",38.8321,-104.5255,0.427455265818308,72675,7.3
"263","peak 1","08043",83.2857142857143,"Fremont","Colorado","West",38.473,-105.4397,0.28833587666784,52239,7.7
"264","peak 1","08045",575.428571428571,"Garfield","Colorado","West",39.5993,-107.904,0.49919104323065,73788,6.8
"265","peak 1","08047",12.8571428571429,"Gilpin","Colorado","West",39.8575,-105.5226,0.531055900621118,74806,11.3
"266","peak 1","08049",38.5714285714286,"Grand","Colorado","West",40.1026,-106.1183,0.477203647416413,71029,8.4
"267","peak 1","08051",213.571428571429,"Gunnison","Colorado","West",38.6668,-107.0316,0.637354781054513,60408,6.6
"268","peak 1","08053",3,"Hinsdale","Colorado","West",37.8213,-107.3003,0.403481012658228,61391,4.2
"269","peak 1","08055",5.57142857142857,"Huerfano","Colorado","West",37.6847,-104.9606,0.471175669541534,39955,9.4
"270","peak 1","08057",8,"Jackson","Colorado","West",40.6664,-106.3428,0.199771689497717,53577,4.3
"271","peak 1","08059",3473.42857142857,"Jefferson","Colorado","West",39.5864,-105.2505,0.57875168606916,89696,7.1
"272","peak 1","08063",39.2857142857143,"Kit Carson","Colorado","West",39.3055,-102.603,0.171015241539654,42951,2.8
"273","peak 1","08065",60.7142857142857,"Lake","Colorado","West",39.2025,-106.3448,0.581418833627872,56850,8.2
"274","peak 1","08067",177.285714285714,"La Plata","Colorado","West",37.2866,-107.8433,0.576106765357333,77829,6.8
"275","peak 1","08069",1183.42857142857,"Larimer","Colorado","West",40.6664,-105.4611,0.562187413634783,75332,6.3
"276","peak 1","08071",12.1428571428571,"Las Animas","Colorado","West",37.3158,-104.0386,0.439266423816103,43452,7.4
"277","peak 1","08073",6.14285714285714,"Lincoln","Colorado","West",38.9881,-103.514,0.17729158807997,43077,4.5
"278","peak 1","08075",643.571428571429,"Logan","Colorado","West",40.7247,-103.1101,0.210596278009875,58429,4.7
"279","peak 1","08077",209.857142857143,"Mesa","Colorado","West",39.0183,-108.4664,0.347994968109289,60249,7.5
"280","peak 1","08079",17.4285714285714,"Mineral","Colorado","West",37.6689,-106.9241,0.419312169312169,63015,5.8
"281","peak 1","08081",20.4285714285714,"Moffat","Colorado","West",40.6184,-108.2074,0.171221178479932,63232,6
"282","peak 1","08083",93.7142857142857,"Montezuma","Colorado","West",37.3386,-108.5966,0.376516129032258,52641,7.1
"283","peak 1","08085",247.428571428571,"Montrose","Colorado","West",38.4022,-108.2693,0.308442340101115,50707,6.6
"284","peak 1","08087",668,"Morgan","Colorado","West",40.2626,-103.8097,0.282013969732247,57535,5.4
"285","peak 1","08089",31.7142857142857,"Otero","Colorado","West",37.9026,-103.7165,0.376461988304094,43723,6.2
"286","peak 1","08091",12,"Ouray","Colorado","West",38.1555,-107.7693,0.588308457711443,72836,8.1
"287","peak 1","08093",36.7142857142857,"Park","Colorado","West",39.1193,-105.7171,0.398942229454841,77221,5.7
"288","peak 1","08095",18.1428571428571,"Phillips","Colorado","West",40.594,-102.3576,0.195573440643863,53432,2.7
"289","peak 1","08097",154.285714285714,"Pitkin","Colorado","West",39.2171,-106.9166,0.751777201639207,92820,10.5
"290","peak 1","08099",45.1428571428571,"Prowers","Colorado","West",37.9552,-102.3934,0.262183060600611,47051,4.4
"291","peak 1","08101",536.857142857143,"Pueblo","Colorado","West",38.1735,-104.5128,0.495724753394716,51075,8.2
"292","peak 1","08103",6,"Rio Blanco","Colorado","West",39.9798,-108.2171,0.151991330262801,65960,5.4
"293","peak 1","08105",85.1428571428571,"Rio Grande","Colorado","West",37.5825,-106.3832,0.395717684377478,48496,7.1
"294","peak 1","08107",92.4285714285714,"Routt","Colorado","West",40.4851,-106.9913,0.62704432329936,87691,7.9
"295","peak 1","08109",106.428571428571,"Saguache","Colorado","West",38.0805,-106.2815,0.55591619946887,37004,7
"296","peak 1","08111",2,"San Juan","Colorado","West",37.764,-107.6762,0.607460035523979,50524,6.7
"297","peak 1","08113",70,"San Miguel","Colorado","West",38.0038,-108.4057,0.762385855838352,77209,10.9
"298","peak 1","08115",10.8571428571429,"Sedgwick","Colorado","West",40.8759,-102.3518,0.208160442600277,42808,3.4
"299","peak 1","08117",311.571428571429,"Summit","Colorado","West",39.6342,-106.1164,0.683532658693652,86570,9.8
"300","peak 1","08119",89.1428571428571,"Teller","Colorado","West",38.8822,-105.1618,0.311588641596316,70599,7.5
"301","peak 1","08121",46,"Washington","Colorado","West",39.971,-103.2012,0.122672872340426,53263,3.1
"302","peak 1","08123",3334,"Weld","Colorado","West",40.5548,-104.3925,0.395644674428633,78160,7
"303","peak 1","08125",56.2857142857143,"Yuma","Colorado","West",40.0029,-102.4242,0.157598875727766,52841,2.8
"304","peak 1","09001",17263.7142857143,"Fairfield","Connecticut","Northeast",41.2708,-73.3894,0.628987927863168,96966,7.9
"305","peak 1","09003",12213.5714285714,"Hartford","Connecticut","Northeast",41.8064,-72.7329,0.630637206900849,75336,8.1
"306","peak 1","09005",1541.28571428571,"Litchfield","Connecticut","Northeast",41.7925,-73.2453,0.466450941010191,81015,6.9
"307","peak 1","09007",1362.42857142857,"Middlesex","Connecticut","Northeast",41.4632,-72.5351,0.573047186073002,81721,6.5
"308","peak 1","09009",12842,"New Haven","Connecticut","Northeast",41.4105,-72.9321,0.580479927269247,69687,8
"309","peak 1","09011",1359.28571428571,"New London","Connecticut","Northeast",41.4866,-72.1015,0.569174235695252,75226,9.6
"310","peak 1","09013",952.714285714286,"Tolland","Connecticut","Northeast",41.855,-72.3365,0.546346187271869,90181,6.2
"311","peak 1","09015",655.571428571429,"Windham","Connecticut","Northeast",41.83,-71.9874,0.467806647160853,63309,7.8
"312","peak 1","10001",2060.42857142857,"Kent","Delaware","South",39.0862,-75.5684,0.511944843435794,58804,8.6
"313","peak 1","10003",6308.57142857143,"New Castle","Delaware","South",39.5768,-75.6527,0.678065451460716,76076,7.7
"314","peak 1","10005",5426,"Sussex","Delaware","South",38.6606,-75.39,0.438199641288886,64839,7.5
"315","peak 1","11001",11573.1428571429,"District of Columbia","District of Columbia","South",38.9047,-77.0163,0.921496939214069,90395,8
"316","peak 1","12001",2899.57142857143,"Alachua","Florida","South",29.6747,-82.3577,0.629042663599899,49880,5.4
"317","peak 1","12003",262.428571428571,"Baker","Florida","South",30.3311,-82.2846,0.14488939469379,60454,4.9
"318","peak 1","12005",2462.28571428571,"Bay","Florida","South",30.2652,-85.6203,0.275348297213622,58376,6.1
"319","peak 1","12007",213.142857142857,"Bradford","Florida","South",29.9499,-82.1688,0.231807511737089,47509,5.9
"320","peak 1","12009",4650.71428571429,"Brevard","Florida","South",28.2937,-80.7323,0.41176226009247,57582,6.6
"321","peak 1","12011",45203.2857142857,"Broward","Florida","South",26.1523,-80.4871,0.646100126139221,61429,8.8
"322","peak 1","12013",237.571428571429,"Calhoun","Florida","South",30.406,-85.1972,0.185258964143426,41399,5.2
"323","peak 1","12015",1573.57142857143,"Charlotte","Florida","South",26.9055,-81.9123,0.363357400722022,54756,7.3
"324","peak 1","12017",963.142857142857,"Citrus","Florida","South",28.8489,-82.4794,0.290661745772895,49762,8.4
"325","peak 1","12019",2330.42857142857,"Clay","Florida","South",29.9831,-81.8579,0.308002089948153,75776,5.4
"326","peak 1","12021",8397.28571428571,"Collier","Florida","South",26.1107,-81.3476,0.37350470122896,76415,6.9
"327","peak 1","12023",1764,"Columbia","Florida","South",30.2242,-82.6215,0.269777858483143,47087,5.8
"328","peak 1","12027",1128.57142857143,"DeSoto","Florida","South",27.1864,-81.8095,0.336440477130895,41673,5.2
"329","peak 1","12029",209.714285714286,"Dixie","Florida","South",29.6082,-83.1588,0.167136035263867,39793,5.5
"330","peak 1","12031",18421,"Duval","Florida","South",30.3316,-81.6708,0.512471084777404,58339,6.7
"331","peak 1","12033",6470.42857142857,"Escambia","Florida","South",30.6689,-87.3628,0.416318409128261,52822,6.7
"332","peak 1","12035",728.285714285714,"Flagler","Florida","South",29.4614,-81.3136,0.39267388030565,62831,7.6
"333","peak 1","12037",82.2857142857143,"Franklin","Florida","South",29.8765,-84.814,0.309534238574974,47504,5.4
"334","peak 1","12039",1025.14285714286,"Gadsden","Florida","South",30.5795,-84.6136,0.679782846561737,42975,6.8
"335","peak 1","12041",279.571428571429,"Gilchrist","Florida","South",29.7258,-82.8004,0.175529168817759,46171,4.9
"336","peak 1","12043",316.571428571429,"Glades","Florida","South",26.9564,-81.1891,0.266705180050067,45412,5.6
"337","peak 1","12045",215.142857142857,"Gulf","Florida","South",29.9555,-85.2266,0.243170403038099,53228,5.9
"338","peak 1","12047",533.142857142857,"Hamilton","Florida","South",30.4964,-82.9479,0.336706689536878,39241,7.6
"339","peak 1","12049",743.142857142857,"Hardee","Florida","South",27.4927,-81.81,0.270830878020035,41430,6.5
"340","peak 1","12051",1451.85714285714,"Hendry","Florida","South",26.5535,-81.1659,0.380911901081917,45107,8.1
"341","peak 1","12053",1317.85714285714,"Hernando","Florida","South",28.5536,-82.425,0.344457501698463,50705,8.1
"342","peak 1","12055",914.285714285714,"Highlands","Florida","South",27.3433,-81.341,0.324669350201265,45723,7.7
"343","peak 1","12057",25535.4285714286,"Hillsborough","Florida","South",27.9291,-82.3092,0.528558568553625,61133,7.1
"344","peak 1","12059",346.428571428571,"Holmes","Florida","South",30.8679,-85.814,0.101896779885311,38874,5.5
"345","peak 1","12061",1797.42857142857,"Indian River","Florida","South",27.6943,-80.6062,0.388207295556194,61173,7.4
"346","peak 1","12063",1012.57142857143,"Jackson","Florida","South",30.7954,-85.2155,0.301797582407779,40543,5.4
"347","peak 1","12065",144.571428571429,"Jefferson","Florida","South",30.4375,-83.8953,0.461128860489883,47192,5.6
"348","peak 1","12067",77.1428571428571,"Lafayette","Florida","South",29.9855,-83.1811,0.139420448332422,45480,4.2
"349","peak 1","12069",3740.42857142857,"Lake","Florida","South",28.7615,-81.7113,0.395170220619552,57660,8.9
"350","peak 1","12071",13705.7142857143,"Lee","Florida","South",26.5778,-81.8337,0.40034374293918,62364,7.3
"351","peak 1","12073",3454.42857142857,"Leon","Florida","South",30.458,-84.2779,0.63535036733792,55081,5.8
"352","peak 1","12075",423.285714285714,"Levy","Florida","South",29.3184,-82.7436,0.268092460574638,41405,6
"353","peak 1","12077",323,"Liberty","Florida","South",30.2414,-84.8829,0.194889076102218,44236,4.8
"354","peak 1","12079",497.571428571429,"Madison","Florida","South",30.4441,-83.4701,0.399466950959488,37919,6
"355","peak 1","12081",7289.57142857143,"Manatee","Florida","South",27.4719,-82.3153,0.415591957890467,64151,6.8
"356","peak 1","12083",2968.42857142857,"Marion","Florida","South",29.2102,-82.0567,0.366275883665401,49079,7
"357","peak 1","12085",3296.28571428571,"Martin","Florida","South",27.0775,-80.4315,0.373690821060308,70806,6.1
"358","peak 1","12086",95576.7142857143,"Miami-Dade","Florida","South",25.615,-80.5623,0.534107412068989,54991,8
"359","peak 1","12087",1018.14285714286,"Monroe","Florida","South",25.3156,-81.1106,0.455578921068521,67528,7.9
"360","peak 1","12089",864.714285714286,"Nassau","Florida","South",30.6106,-81.8016,0.26464436925065,72818,5.7
"361","peak 1","12091",2158.71428571429,"Okaloosa","Florida","South",30.6913,-86.5917,0.294295068443711,63520,5.5
"362","peak 1","12093",745.857142857143,"Okeechobee","Florida","South",27.3864,-80.8886,0.275166102544816,45225,5.4
"363","peak 1","12095",25290.4285714286,"Orange","Florida","South",28.5144,-81.3235,0.610151636615833,63133,10.6
"364","peak 1","12097",6921.28571428571,"Osceola","Florida","South",28.0627,-81.1495,0.56424992460971,52270,13.5
"365","peak 1","12099",28310.2857142857,"Palm Beach","Florida","South",26.6476,-80.4655,0.560780590771873,66621,7.6
"366","peak 1","12101",5405.28571428571,"Pasco","Florida","South",28.3091,-82.3932,0.394320627876941,55745,7.2
"367","peak 1","12103",14435.7142857143,"Pinellas","Florida","South",27.9196,-82.7256,0.495698703804615,56708,7
"368","peak 1","12105",10618.8571428571,"Polk","Florida","South",27.9489,-81.6976,0.422567995898105,51817,9
"369","peak 1","12107",1078.57142857143,"Putnam","Florida","South",29.6087,-81.7443,0.289417974871471,41986,7.9
"370","peak 1","12109",2732.42857142857,"St. Johns","Florida","South",29.9016,-81.4407,0.361506494094733,90839,5.3
"371","peak 1","12111",4040.42857142857,"St. Lucie","Florida","South",27.3773,-80.472,0.488688439846895,57292,7.8
"372","peak 1","12113",2198.71428571429,"Santa Rosa","Florida","South",30.7004,-87.022,0.258229836899596,66139,5.2
"373","peak 1","12115",4703.85714285714,"Sarasota","Florida","South",27.1845,-82.3315,0.443906495426407,66258,6.8
"374","peak 1","12117",5736.28571428571,"Seminole","Florida","South",28.717,-81.2363,0.508130283917719,69954,7.2
"375","peak 1","12119",912.285714285714,"Sumter","Florida","South",28.7048,-82.081,0.317251446180462,63464,7.9
"376","peak 1","12121",954.285714285714,"Suwannee","Florida","South",30.1956,-82.9915,0.212993303889443,49453,5.6
"377","peak 1","12123",239.571428571429,"Taylor","Florida","South",30.047,-83.6035,0.227016885553471,42987,6.2
"378","peak 1","12125",170,"Union","Florida","South",30.0439,-82.3714,0.168614891913531,50893,4.7
"379","peak 1","12127",5804.14285714286,"Volusia","Florida","South",29.0584,-81.1819,0.424718399422324,53554,7.6
"380","peak 1","12129",400.714285714286,"Wakulla","Florida","South",30.1673,-84.4007,0.290752010432515,58640,4.5
"381","peak 1","12131",936.285714285714,"Walton","Florida","South",30.6436,-86.1697,0.236507972821487,62600,5.9
"382","peak 1","12133",378.428571428571,"Washington","Florida","South",30.6106,-85.6653,0.190395067737487,42518,5.8
"383","peak 1","13001",465.428571428571,"Appling","Georgia","South",31.7492,-82.2889,0.212634088200238,43821,4.7
"384","peak 1","13003",248.571428571429,"Atkinson","Georgia","South",31.2971,-82.8801,0.26148969889065,38581,3.9
"385","peak 1","13005",363,"Bacon","Georgia","South",31.5537,-82.4527,0.133919005785301,41807,4.9
"386","peak 1","13007",47.4285714285714,"Baker","Georgia","South",31.3262,-84.4447,0.419292604501608,39515,6
"387","peak 1","13009",789.714285714286,"Baldwin","Georgia","South",33.0692,-83.2496,0.500794477014958,44429,6.9
"388","peak 1","13011",197.857142857143,"Banks","Georgia","South",34.3541,-83.4974,0.105897057152596,53481,4.3
"389","peak 1","13013",849,"Barrow","Georgia","South",33.9932,-83.7127,0.275652013396271,68924,5.1
"390","peak 1","13015",1247.85714285714,"Bartow","Georgia","South",34.2377,-84.8403,0.239596544071021,60254,6.2
"391","peak 1","13017",286,"Ben Hill","Georgia","South",31.7598,-83.2205,0.364564290067032,35931,6.9
"392","peak 1","13019",213.428571428571,"Berrien","Georgia","South",31.276,-83.2296,0.163889965129795,42058,5.8
"393","peak 1","13021",2490.85714285714,"Bibb","Georgia","South",32.8065,-83.6974,0.613852985264587,43066,7.5
"394","peak 1","13023",108,"Bleckley","Georgia","South",32.4344,-83.3279,0.229852838121934,48115,6.5
"395","peak 1","13025",186.857142857143,"Brantley","Georgia","South",31.1969,-81.9819,0.0903342366757001,44680,5.4
"396","peak 1","13027",298.571428571429,"Brooks","Georgia","South",30.842,-83.5802,0.393043233347416,39554,5.2
"397","peak 1","13029",419.714285714286,"Bryan","Georgia","South",32.0145,-81.4436,0.315819076634638,79296,5.3
"398","peak 1","13031",860.285714285714,"Bulloch","Georgia","South",32.3968,-81.7432,0.373811897640412,48788,6.5
"399","peak 1","13033",291.142857142857,"Burke","Georgia","South",33.0611,-82.0009,0.48750351024993,42632,7.2
"400","peak 1","13035",387.428571428571,"Butts","Georgia","South",33.2879,-83.9572,0.278141194460963,47410,6.2
"401","peak 1","13037",178.285714285714,"Calhoun","Georgia","South",31.5292,-84.6245,0.574613284804368,34960,5.1
"402","peak 1","13039",447.428571428571,"Camden","Georgia","South",30.9306,-81.67,0.336359030651017,58552,4.7
"403","peak 1","13043",154,"Candler","Georgia","South",32.4034,-82.0737,0.286391333784699,41665,4.4
"404","peak 1","13045",1451.71428571429,"Carroll","Georgia","South",33.5828,-85.0798,0.298061389337641,59193,6.4
"405","peak 1","13047",428,"Catoosa","Georgia","South",34.9036,-85.1382,0.21268370509005,60753,4.3
"406","peak 1","13049",227.571428571429,"Charlton","Georgia","South",30.7817,-82.1379,0.241900175131349,42891,3.8
"407","peak 1","13051",3888.57142857143,"Chatham","Georgia","South",32.0042,-81.1328,0.586524046533941,57122,7.6
"408","peak 1","13053",505.428571428571,"Chattahoochee","Georgia","South",32.347,-84.787,0.421618204804045,46106,6.2
"409","peak 1","13055",115.714285714286,"Chattooga","Georgia","South",34.475,-85.3453,0.184477611940299,41561,8.4
"410","peak 1","13057",2306,"Cherokee","Georgia","South",34.2439,-84.4762,0.295404481579947,88635,4.9
"411","peak 1","13059",1355.28571428571,"Clarke","Georgia","South",33.9512,-83.3673,0.702196860514938,41036,6.4
"412","peak 1","13061",67.8571428571429,"Clay","Georgia","South",31.6263,-84.9801,0.551219512195122,24732,12.4
"413","peak 1","13063",3736,"Clayton","Georgia","South",33.5419,-84.3576,0.849870916050921,50737,10.3
"414","peak 1","13065",146,"Clinch","Georgia","South",30.915,-82.7063,0.260048933939182,42928,4
"415","peak 1","13067",9351.57142857143,"Cobb","Georgia","South",33.9415,-84.5767,0.56345243416775,79622,5.9
"416","peak 1","13069",1120.42857142857,"Coffee","Georgia","South",31.5493,-82.8492,0.29650322071776,41675,5.8
"417","peak 1","13071",1385.14285714286,"Colquitt","Georgia","South",31.1884,-83.7688,0.26047494715902,41899,4.5
"418","peak 1","13073",1365,"Columbia","Georgia","South",33.5441,-82.264,0.36279242941359,88285,4.2
"419","peak 1","13075",315.428571428571,"Cook","Georgia","South",31.154,-83.4305,0.292679459843639,40670,4.7
"420","peak 1","13077",1101.28571428571,"Coweta","Georgia","South",33.3535,-84.7634,0.315238479667704,79232,6.2
"421","peak 1","13079",74.5714285714286,"Crawford","Georgia","South",32.7145,-83.9863,0.264667322189446,50411,5
"422","peak 1","13081",344.142857142857,"Crisp","Georgia","South",31.9229,-83.7681,0.37121872276858,40482,7.9
"423","peak 1","13083",90.7142857142857,"Dade","Georgia","South",34.8546,-85.5045,0.169626042507398,45986,4.1
"424","peak 1","13085",218,"Dawson","Georgia","South",34.4443,-84.1706,0.154592376096014,69155,4.7
"425","peak 1","13087",444.714285714286,"Decatur","Georgia","South",30.8783,-84.579,0.411354838709677,40473,4.8
"426","peak 1","13089",10483.4285714286,"DeKalb","Georgia","South",33.7715,-84.2264,0.831194402636846,63606,8
"427","peak 1","13091",185.285714285714,"Dodge","Georgia","South",32.1722,-83.1684,0.269111634246066,41118,6
"428","peak 1","13093",228,"Dooly","Georgia","South",32.1572,-83.7988,0.465529841656516,37109,7.7
"429","peak 1","13095",2396.28571428571,"Dougherty","Georgia","South",31.5335,-84.2164,0.696233740470995,36894,8.6
"430","peak 1","13097",1910.85714285714,"Douglas","Georgia","South",33.7018,-84.768,0.619540994993199,62915,7.4
"431","peak 1","13099",327.857142857143,"Early","Georgia","South",31.3228,-84.9037,0.472243639167309,40011,5.8
"432","peak 1","13101",215,"Echols","Georgia","South",30.7101,-82.894,0.11589174184594,40408,3.9
"433","peak 1","13103",473.428571428571,"Effingham","Georgia","South",32.3673,-81.3413,0.244464856989009,71628,5
"434","peak 1","13105",260.714285714286,"Elbert","Georgia","South",34.1168,-82.8401,0.313924326681932,40962,6.9
"435","peak 1","13107",289.857142857143,"Emanuel","Georgia","South",32.5897,-82.3017,0.303629668595476,38529,7.1
"436","peak 1","13109",132.714285714286,"Evans","Georgia","South",32.1568,-81.8869,0.311749470214269,41425,5.1
"437","peak 1","13111",214.142857142857,"Fannin","Georgia","South",34.8641,-84.3198,0.173075627988417,47980,4.7
"438","peak 1","13113",737.571428571429,"Fayette","Georgia","South",33.414,-84.4942,0.459232713837264,94563,5.4
"439","peak 1","13115",949.142857142857,"Floyd","Georgia","South",34.2632,-85.2143,0.288261048353934,50520,6.3
"440","peak 1","13117",1502.85714285714,"Forsyth","Georgia","South",34.2255,-84.125,0.326406879538477,113332,4.6
"441","peak 1","13119",311.285714285714,"Franklin","Georgia","South",34.3754,-83.2292,0.147979563399907,47691,5.9
"442","peak 1","13121",14673.2857142857,"Fulton","Georgia","South",33.7903,-84.467,0.725901572991662,79235,8
"443","peak 1","13123",398.142857142857,"Gilmer","Georgia","South",34.6912,-84.4556,0.177428139183056,57007,4.7
"444","peak 1","13125",17.5714285714286,"Glascock","Georgia","South",33.2293,-82.6107,0.0990415335463259,49350,4.1
"445","peak 1","13127",1993.85714285714,"Glynn","Georgia","South",31.2309,-81.5407,0.37825092883681,58017,6.8
"446","peak 1","13129",752.714285714286,"Gordon","Georgia","South",34.5032,-84.8759,0.182415844879957,53373,5.5
"447","peak 1","13131",324.714285714286,"Grady","Georgia","South",30.8747,-84.2344,0.338003175492668,42603,4.4
"448","peak 1","13133",187.285714285714,"Greene","Georgia","South",33.5788,-83.1667,0.363482746353611,60973,5.9
"449","peak 1","13135",14469,"Gwinnett","Georgia","South",33.9617,-84.0236,0.584494098153967,72225,6.3
"450","peak 1","13137",902,"Habersham","Georgia","South",34.631,-83.5311,0.174342910283393,51296,5.4
"451","peak 1","13139",4681.14285714286,"Hall","Georgia","South",34.3169,-83.8197,0.276494692777538,66698,4.7
"452","peak 1","13141",250,"Hancock","Georgia","South",33.2704,-83.0007,0.716590416566338,31715,8.8
"453","peak 1","13143",148.714285714286,"Haralson","Georgia","South",33.7942,-85.211,0.125719500210585,49020,5.9
"454","peak 1","13145",536,"Harris","Georgia","South",32.736,-84.9089,0.272972837777,74052,4.6
"455","peak 1","13147",181.714285714286,"Hart","Georgia","South",34.3508,-82.9642,0.248035826524199,50647,5.4
"456","peak 1","13149",110.857142857143,"Heard","Georgia","South",33.297,-85.1283,0.152762328513163,48984,6.5
"457","peak 1","13151",2397.14285714286,"Henry","Georgia","South",33.453,-84.1542,0.597107270036911,72927,7.4
"458","peak 1","13153",1361.57142857143,"Houston","Georgia","South",32.459,-83.6662,0.430783826398354,65641,5.2
"459","peak 1","13155",119,"Irwin","Georgia","South",31.6022,-83.2764,0.241842610364683,42317,5.5
"460","peak 1","13157",702.714285714286,"Jackson","Georgia","South",34.1339,-83.5664,0.202840079628401,66645,4.4
"461","peak 1","13159",104.142857142857,"Jasper","Georgia","South",33.3165,-83.688,0.230376766091052,59207,4.9
"462","peak 1","13161",250.571428571429,"Jeff Davis","Georgia","South",31.8056,-82.6368,0.178132039507884,40603,5.1
"463","peak 1","13163",334.285714285714,"Jefferson","Georgia","South",33.0549,-82.4182,0.531221364052887,35379,6.7
"464","peak 1","13165",201.857142857143,"Jenkins","Georgia","South",32.7924,-81.9635,0.366425470332851,32808,6.3
"465","peak 1","13167",186.857142857143,"Johnson","Georgia","South",32.7015,-82.6601,0.298048780487805,37771,4.9
"466","peak 1","13169",205.285714285714,"Jones","Georgia","South",33.0251,-83.5605,0.326905048881746,56819,4.6
"467","peak 1","13171",179.571428571429,"Lamar","Georgia","South",33.0765,-84.1395,0.289662797125484,57402,6.3
"468","peak 1","13173",189.285714285714,"Lanier","Georgia","South",31.0379,-83.0628,0.284955257270693,42667,5.2
"469","peak 1","13175",545.428571428571,"Laurens","Georgia","South",32.4637,-82.9222,0.355197747569399,42018,6.7
"470","peak 1","13177",465.142857142857,"Lee","Georgia","South",31.7796,-84.1412,0.272705516333613,72425,4.6
"471","peak 1","13179",441.285714285714,"Liberty","Georgia","South",31.8281,-81.4947,0.612508179863513,51410,6.2
"472","peak 1","13181",94.7142857142857,"Lincoln","Georgia","South",33.7936,-82.4512,0.308554190907132,45299,5.4
"473","peak 1","13183",91.1428571428571,"Long","Georgia","South",31.7526,-81.7457,0.35973130634612,52051,4.4
"474","peak 1","13185",2455.42857142857,"Lowndes","Georgia","South",30.8338,-83.2677,0.433955344623018,46450,6
"475","peak 1","13187",226.571428571429,"Lumpkin","Georgia","South",34.5722,-84.0027,0.201274869615608,57078,4.8
"476","peak 1","13189",217.285714285714,"McDuffie","Georgia","South",33.4829,-82.4814,0.398660927785748,44473,7.8
"477","peak 1","13191",114.571428571429,"McIntosh","Georgia","South",31.4967,-81.4085,0.390083632019116,46682,5.7
"478","peak 1","13193",154.571428571429,"Macon","Georgia","South",32.3584,-84.0425,0.612910143684323,34634,6.7
"479","peak 1","13195",252,"Madison","Georgia","South",34.1278,-83.209,0.22835910825467,52326,5.2
"480","peak 1","13197",116.428571428571,"Marion","Georgia","South",32.3534,-84.5247,0.361931034482759,41190,5.1
"481","peak 1","13199",302,"Meriwether","Georgia","South",33.0407,-84.6883,0.394134412062149,43571,8.6
"482","peak 1","13201",85.1428571428571,"Miller","Georgia","South",31.164,-84.7308,0.26393789696542,41769,4
"483","peak 1","13205",539.142857142857,"Mitchell","Georgia","South",31.2253,-84.1943,0.44554786877929,37383,6.5
"484","peak 1","13207",336.285714285714,"Monroe","Georgia","South",33.0139,-83.9187,0.281270044900577,70488,5.1
"485","peak 1","13209",96.8571428571429,"Montgomery","Georgia","South",32.1734,-82.5348,0.247038064028233,43657,5.4
"486","peak 1","13211",129.857142857143,"Morgan","Georgia","South",33.5909,-83.4923,0.286434307192893,67089,5.4
"487","peak 1","13213",428,"Murray","Georgia","South",34.7884,-84.7481,0.149522386119956,50061,7.6
"488","peak 1","13215",3638.28571428571,"Muscogee","Georgia","South",32.51,-84.8771,0.614129219763023,47035,7.8
"489","peak 1","13217",1292.71428571429,"Newton","Georgia","South",33.555,-83.8502,0.549267986871704,58222,7.1
"490","peak 1","13219",319.714285714286,"Oconee","Georgia","South",33.835,-83.4371,0.324300699300699,100878,3.8
"491","peak 1","13221",153.571428571429,"Oglethorpe","Georgia","South",33.8807,-83.0807,0.299889339727038,54346,4.8
"492","peak 1","13223",1142.57142857143,"Paulding","Georgia","South",33.9205,-84.8673,0.34783067047744,76580,5.4
"493","peak 1","13225",223.428571428571,"Peach","Georgia","South",32.5688,-83.8269,0.471759738707879,49815,6.2
"494","peak 1","13227",195.428571428571,"Pickens","Georgia","South",34.4643,-84.4656,0.164501660161939,66183,4.8
"495","peak 1","13229",334.142857142857,"Pierce","Georgia","South",31.3588,-82.2128,0.121587266497181,46701,4.5
"496","peak 1","13231",151.285714285714,"Pike","Georgia","South",33.0923,-84.3892,0.140391791044776,74905,5
"497","peak 1","13233",464.714285714286,"Polk","Georgia","South",34.0018,-85.1881,0.210220740400092,47896,6
"498","peak 1","13235",72.4285714285714,"Pulaski","Georgia","South",32.2323,-83.476,0.301396716491056,42274,4.5
"499","peak 1","13237",288.714285714286,"Putnam","Georgia","South",33.3218,-83.3728,0.290847743568115,62282,6.6
"500","peak 1","13239",24.8571428571429,"Quitman","Georgia","South",31.8673,-85.0188,0.449367088607595,35522,6.5
"501","peak 1","13241",138.142857142857,"Rabun","Georgia","South",34.8817,-83.4021,0.207357859531773,46639,5.3
"502","peak 1","13243",230.428571428571,"Randolph","Georgia","South",31.7626,-84.7542,0.54376830458835,33505,5.9
"503","peak 1","13245",2538.71428571429,"Richmond","Georgia","South",33.3596,-82.0735,0.67945844682734,44810,7.6
"504","peak 1","13247",942.714285714286,"Rockdale","Georgia","South",33.6542,-84.0266,0.699111479152212,60281,7.6
"505","peak 1","13249",35,"Schley","Georgia","South",32.2617,-84.3148,0.203076923076923,51129,4.3
"506","peak 1","13251",141.857142857143,"Screven","Georgia","South",32.7506,-81.6119,0.401539157990041,42331,8.2
"507","peak 1","13253",82.2857142857143,"Seminole","Georgia","South",30.9388,-84.8688,0.323045267489712,38618,5
"508","peak 1","13255",697.285714285714,"Spalding","Georgia","South",33.2609,-84.2841,0.391513025057098,49237,7.6
"509","peak 1","13257",445.142857142857,"Stephens","Georgia","South",34.5539,-83.2935,0.200757257046698,45416,6.4
"510","peak 1","13259",235.142857142857,"Stewart","Georgia","South",32.0785,-84.8352,0.593969849246231,34566,5.7
"511","peak 1","13261",683,"Sumter","Georgia","South",32.0399,-84.197,0.519756338491933,40250,7.4
"512","peak 1","13263",112.428571428571,"Talbot","Georgia","South",32.6995,-84.533,0.60022714366837,41045,6.9
"513","peak 1","13265",4.28571428571429,"Taliaferro","Georgia","South",33.5661,-82.8788,0.604525862068966,37046,7.2
"514","peak 1","13267",295.714285714286,"Tattnall","Georgia","South",32.0458,-82.0581,0.251924251679902,41457,4.3
"515","peak 1","13269",54.5714285714286,"Taylor","Georgia","South",32.5555,-84.2505,0.361270171785528,28234,6.7
"516","peak 1","13271",226.857142857143,"Telfair","Georgia","South",31.9298,-82.939,0.343331795108445,36264,9.9
"517","peak 1","13273",269.428571428571,"Terrell","Georgia","South",31.777,-84.437,0.53804347826087,37122,7.5
"518","peak 1","13275",775.857142857143,"Thomas","Georgia","South",30.8638,-83.9193,0.398134601316752,47978,6.2
"519","peak 1","13277",1117.71428571429,"Tift","Georgia","South",31.4574,-83.5266,0.326678542908041,47764,5.1
"520","peak 1","13279",459.142857142857,"Toombs","Georgia","South",32.1216,-82.3312,0.269195528678761,41442,6.6
"521","peak 1","13281",91.2857142857143,"Towns","Georgia","South",34.9167,-83.7373,0.194259932322346,49023,6.7
"522","peak 1","13283",68,"Treutlen","Georgia","South",32.4039,-82.5673,0.30939226519337,37478,6
"523","peak 1","13285",1992.85714285714,"Troup","Georgia","South",33.0335,-85.0284,0.385296369021866,47296,7.3
"524","peak 1","13287",205.857142857143,"Turner","Georgia","South",31.7164,-83.6241,0.371669744130836,35400,7.2
"525","peak 1","13289",62.1428571428571,"Twiggs","Georgia","South",32.6672,-83.4271,0.45994599459946,44079,7.4
"526","peak 1","13291",154.571428571429,"Union","Georgia","South",34.8341,-83.9907,0.179971718729914,57049,4.4
"527","peak 1","13293",433.714285714286,"Upson","Georgia","South",32.8813,-84.2993,0.325687717938783,40926,6.6
"528","peak 1","13295",431.857142857143,"Walker","Georgia","South",34.7356,-85.301,0.196566055733461,47548,4.9
"529","peak 1","13297",702.571428571429,"Walton","Georgia","South",33.7816,-83.7339,0.248233613215118,67007,5.4
"530","peak 1","13299",937.142857142857,"Ware","Georgia","South",31.0538,-82.4237,0.293819155683981,37642,5.6
"531","peak 1","13301",44.2857142857143,"Warren","Georgia","South",33.4089,-82.6768,0.553962264150943,37313,6.8
"532","peak 1","13303",282.857142857143,"Washington","Georgia","South",32.9695,-82.7959,0.500474833808167,41674,6.4
"533","peak 1","13305",460.714285714286,"Wayne","Georgia","South",31.5514,-81.9167,0.210345097425464,47382,5.6
"534","peak 1","13307",35.2857142857143,"Webster","Georgia","South",32.0466,-84.551,0.460100647016535,41547,5.7
"535","peak 1","13309",78.1428571428571,"Wheeler","Georgia","South",32.1171,-82.7246,0.301531728665208,35927,7.2
"536","peak 1","13311",239.571428571429,"White","Georgia","South",34.6464,-83.7471,0.162729481641469,54786,4.4
"537","peak 1","13313",2469.57142857143,"Whitfield","Georgia","South",34.8056,-84.9672,0.290485774900723,53115,7.3
"538","peak 1","13315",149.142857142857,"Wilcox","Georgia","South",31.9729,-83.4323,0.262580054894785,38261,5.7
"539","peak 1","13317",154.428571428571,"Wilkes","Georgia","South",33.7819,-82.7432,0.429423459244533,39716,6.7
"540","peak 1","13319",147.714285714286,"Wilkinson","Georgia","South",32.8024,-83.1712,0.434800838574423,43902,5.4
"541","peak 1","13321",387.428571428571,"Worth","Georgia","South",31.5515,-83.8509,0.257942918686053,43142,5.4
"542","peak 1","15001",115.714285714286,"Hawaii","Hawaii","West",19.5987,-155.5185,0.668811351265174,64929,11.4
"543","peak 1","15003",1189.14285714286,"Honolulu","Hawaii","West",21.5008,-158.1053,0.625124962707464,86946,10.2
"544","peak 1","15007",43.2857142857143,"Kauai","Hawaii","West",22.0396,-159.5963,0.633638833328358,73029,16.2
"545","peak 1","15009",142,"Maui","Hawaii","West",20.8596,-156.5648,0.665854963121446,77375,17.8
"546","peak 1","16001",6571.71428571429,"Ada","Idaho","West",43.4511,-116.2412,0.464703591902509,72295,5.4
"547","peak 1","16003",15.1428571428571,"Adams","Idaho","West",44.8896,-116.4538,0.228538283062645,50042,9.3
"548","peak 1","16005",272.714285714286,"Bannock","Idaho","West",42.6685,-112.2246,0.371198139205623,53306,4.9
"549","peak 1","16007",7.85714285714286,"Bear Lake","Idaho","West",42.2848,-111.3297,0.105580693815988,54550,4.2
"550","peak 1","16009",38.5714285714286,"Benewah","Idaho","West",47.2176,-116.6587,0.196460888799517,49303,7.5
"551","peak 1","16011",150.142857142857,"Bingham","Idaho","West",43.2166,-112.3981,0.205235393649846,59959,3.9
"552","peak 1","16013",560.142857142857,"Blaine","Idaho","West",43.4119,-113.9802,0.671207104154124,75778,7.8
"553","peak 1","16015",26.7142857142857,"Boise","Idaho","West",43.9891,-115.7304,0.249792531120332,64443,8
"554","peak 1","16017",114.714285714286,"Bonner","Idaho","West",48.3,-116.6011,0.303816905527932,56729,7.5
"555","peak 1","16019",429.285714285714,"Bonneville","Idaho","West",43.3877,-111.6148,0.263987406241319,65165,4
"556","peak 1","16021",23.8571428571429,"Boundary","Idaho","West",48.7669,-116.4629,0.193252019642009,50709,6.2
"557","peak 1","16025",1,"Camas","Idaho","West",43.4633,-114.8058,0.197612732095491,56014,4.8
"558","peak 1","16027",3718.14285714286,"Canyon","Idaho","West",43.6251,-116.7093,0.286173953426657,58670,5.9
"559","peak 1","16029",23,"Caribou","Idaho","West",42.7705,-111.5623,0.126170960187354,61518,3.6
"560","peak 1","16031",394.428571428571,"Cassia","Idaho","West",42.2839,-113.6001,0.152040710354139,53284,3.7
"561","peak 1","16033",1,"Clark","Idaho","West",44.2839,-112.3512,0.131832797427653,48726,4
"562","peak 1","16035",11.4285714285714,"Clearwater","Idaho","West",46.6736,-115.6567,0.198461190314551,49816,8.2
"563","peak 1","16037",6.85714285714286,"Custer","Idaho","West",44.2411,-114.2817,0.220153340635268,49055,5
"564","peak 1","16039",134.142857142857,"Elmore","Idaho","West",43.354,-115.4693,0.254875061244488,47796,4.8
"565","peak 1","16041",42.2857142857143,"Franklin","Idaho","West",42.1811,-111.8132,0.0985894357743097,55421,3.6
"566","peak 1","16043",32.8571428571429,"Fremont","Idaho","West",44.2288,-111.4819,0.14853400803691,56162,3.6
"567","peak 1","16045",112.428571428571,"Gem","Idaho","West",44.0616,-116.3975,0.181060453906407,53733,5.9
"568","peak 1","16047",105.714285714286,"Gooding","Idaho","West",42.971,-114.8115,0.207603305785124,50205,3.8
"569","peak 1","16049",22,"Idaho","Idaho","West",45.8441,-115.4675,0.162570297854614,48866,6.7
"570","peak 1","16051",72,"Jefferson","Idaho","West",43.8201,-112.3113,0.117194665914062,63078,3.4
"571","peak 1","16053",364,"Jerome","Idaho","West",42.6899,-114.2639,0.242319508448541,56320,4
"572","peak 1","16055",1194.14285714286,"Kootenai","Idaho","West",47.6744,-116.7018,0.270500011126193,62764,6.9
"573","peak 1","16057",60.5714285714286,"Latah","Idaho","West",46.8162,-116.7117,0.497617890131259,54999,4.7
"574","peak 1","16059",7.28571428571429,"Lemhi","Idaho","West",44.9433,-113.9333,0.217813423385395,46062,6.7
"575","peak 1","16063",46,"Lincoln","Idaho","West",43.0024,-114.1383,0.21340206185567,50608,5.8
"576","peak 1","16065",110.285714285714,"Madison","Idaho","West",43.7841,-111.6592,0.155797101449275,46177,2.7
"577","peak 1","16067",344.857142857143,"Minidoka","Idaho","West",42.8543,-113.6375,0.193919679719755,56173,3.8
"578","peak 1","16069",120,"Nez Perce","Idaho","West",46.3268,-116.7502,0.318882052749559,67645,4.9
"579","peak 1","16071",8.42857142857143,"Oneida","Idaho","West",42.195,-112.5394,0.101591187270502,55833,4.2
"580","peak 1","16073",168.571428571429,"Owyhee","Idaho","West",42.5815,-116.1699,0.172079291438212,48395,6
"581","peak 1","16075",262.857142857143,"Payette","Idaho","West",44.0067,-116.7608,0.191357478083769,53643,5.3
"582","peak 1","16077",29,"Power","Idaho","West",42.6937,-112.8407,0.280298120544394,50981,4.1
"583","peak 1","16079",35,"Shoshone","Idaho","West",47.3529,-115.8924,0.279880972061498,39239,9.1
"584","peak 1","16081",49.8571428571429,"Teton","Idaho","West",43.7594,-111.2076,0.522766661414842,73637,5.7
"585","peak 1","16083",988.571428571429,"Twin Falls","Idaho","West",42.356,-114.6672,0.256025081788441,56141,5.3
"586","peak 1","16085",40.2857142857143,"Valley","Idaho","West",44.7666,-115.5663,0.421350700835339,64041,7.9
"587","peak 1","16087",158.428571428571,"Washington","Idaho","West",44.4524,-116.7847,0.200785928143713,45813,5.4
"588","peak 1","17001",305.428571428571,"Adams","Illinois","Midwest",39.9879,-91.1885,0.257493960091866,55942,6.3
"589","peak 1","17003",33.2857142857143,"Alexander","Illinois","Midwest",37.1915,-89.3375,0.424380952380952,37408,9.8
"590","peak 1","17005",31.2857142857143,"Bond","Illinois","Midwest",38.8868,-89.4356,0.280943025540275,53447,6.8
"591","peak 1","17007",672,"Boone","Illinois","Midwest",42.3231,-88.8234,0.42203450898755,72426,11.2
"592","peak 1","17009",11.5714285714286,"Brown","Illinois","Midwest",39.9618,-90.7504,0.192475247524752,60254,3.8
"593","peak 1","17011",65,"Bureau","Illinois","Midwest",41.4041,-89.5287,0.382528392795687,57935,7.6
"594","peak 1","17013",4.14285714285714,"Calhoun","Illinois","Midwest",39.1693,-90.6676,0.244139920663541,63373,7.6
"595","peak 1","17015",27,"Carroll","Illinois","Midwest",42.0687,-89.9343,0.34247258225324,56468,7.2
"596","peak 1","17017",162,"Cass","Illinois","Midwest",39.9735,-90.2474,0.303229440480661,51011,6.7
"597","peak 1","17019",1318.14285714286,"Champaign","Illinois","Midwest",40.1401,-88.1992,0.597135024275908,53485,6.4
"598","peak 1","17021",66.4285714285714,"Christian","Illinois","Midwest",39.5458,-89.2773,0.267526536657615,51573,8.1
"599","peak 1","17023",51.8571428571429,"Clark","Illinois","Midwest",39.3336,-87.7877,0.238539796529025,58323,7.9
"600","peak 1","17025",8.85714285714286,"Clay","Illinois","Midwest",38.7542,-88.4902,0.163646905348601,49377,9.4
"601","peak 1","17027",284.857142857143,"Clinton","Illinois","Midwest",38.6065,-89.4225,0.233839908400125,67201,5.8
"602","peak 1","17029",273,"Coles","Illinois","Midwest",39.5203,-88.2218,0.356852163142529,50467,7.4
"603","peak 1","17031",100770.428571429,"Cook","Illinois","Midwest",41.8401,-87.8168,0.743505532655093,69375,11.1
"604","peak 1","17033",27.5714285714286,"Crawford","Illinois","Midwest",39.0027,-87.7596,0.233238004448681,50352,7
"605","peak 1","17035",37.7142857142857,"Cumberland","Illinois","Midwest",39.2734,-88.2402,0.195213675213675,53991,5.7
"606","peak 1","17037",768.428571428571,"DeKalb","Illinois","Midwest",41.8935,-88.7703,0.513513513513513,64676,8.2
"607","peak 1","17039",23.7142857142857,"De Witt","Illinois","Midwest",40.1746,-88.9041,0.273055832502493,59521,6.5
"608","peak 1","17041",89,"Douglas","Illinois","Midwest",39.7694,-88.2174,0.266552511415525,64283,5.6
"609","peak 1","17043",10606.4285714286,"DuPage","Illinois","Midwest",41.852,-88.0856,0.579762670492966,96354,7.9
"610","peak 1","17045",21.5714285714286,"Edgar","Illinois","Midwest",39.6786,-87.7456,0.230234260614934,51333,6.6
"611","peak 1","17047",5.85714285714286,"Edwards","Illinois","Midwest",38.4165,-88.0533,0.144893111638955,54930,8.2
"612","peak 1","17049",52,"Effingham","Illinois","Midwest",39.0598,-88.5899,0.194728292197244,58943,6.6
"613","peak 1","17051",40.1428571428571,"Fayette","Illinois","Midwest",39.0002,-89.0241,0.181222707423581,48913,7.5
"614","peak 1","17053",34.7142857142857,"Ford","Illinois","Midwest",40.5972,-88.2233,0.251758289077078,55369,6.4
"615","peak 1","17055",86,"Franklin","Illinois","Midwest",37.9923,-88.9242,0.254968128983877,43695,10.5
"616","peak 1","17057",21.2857142857143,"Fulton","Illinois","Midwest",40.4728,-90.2075,0.388842382205214,50461,8.6
"617","peak 1","17059",27.1428571428571,"Gallatin","Illinois","Midwest",37.7627,-88.2304,0.232523364485981,46515,9.2
"618","peak 1","17061",13.8571428571429,"Greene","Illinois","Midwest",39.3562,-90.3905,0.216637224987956,52116,6.5
"619","peak 1","17063",228.857142857143,"Grundy","Illinois","Midwest",41.2851,-88.4185,0.359810114753486,83135,8.8
"620","peak 1","17065",11.2857142857143,"Hamilton","Illinois","Midwest",38.0815,-88.5391,0.190608373814481,51031,6.7
"621","peak 1","17067",23.7142857142857,"Hancock","Illinois","Midwest",40.4037,-91.1647,0.246722796546947,53724,6.9
"622","peak 1","17069",9,"Hardin","Illinois","Midwest",37.5182,-88.2668,0.207678075855689,44573,9.2
"623","peak 1","17071",8.28571428571429,"Henderson","Illinois","Midwest",40.818,-90.9251,0.324671772428884,55535,6.9
"624","peak 1","17073",152.571428571429,"Henry","Illinois","Midwest",41.3531,-90.1314,0.381206225680934,61680,7.8
"625","peak 1","17075",197.857142857143,"Iroquois","Illinois","Midwest",40.7473,-87.8243,0.207063514668186,51542,6.2
"626","peak 1","17077",457.714285714286,"Jackson","Illinois","Midwest",37.7851,-89.3821,0.492208135235077,37308,7.7
"627","peak 1","17079",48.7142857142857,"Jasper","Illinois","Midwest",39.0101,-88.1538,0.180272108843537,59980,6
"628","peak 1","17081",144.571428571429,"Jefferson","Illinois","Midwest",38.3005,-88.924,0.264280798348245,50531,10.1
"629","peak 1","17083",56.7142857142857,"Jersey","Illinois","Midwest",39.0855,-90.3565,0.24757525083612,63351,7.4
"630","peak 1","17085",82.2857142857143,"Jo Daviess","Illinois","Midwest",42.3658,-90.2125,0.408883553421369,62522,8.3
"631","peak 1","17087",45.7142857142857,"Johnson","Illinois","Midwest",37.4597,-88.8809,0.198604651162791,55022,8.9
"632","peak 1","17089",8615.71428571429,"Kane","Illinois","Midwest",41.9388,-88.4286,0.561360382273284,84311,9.1
"633","peak 1","17091",1629.57142857143,"Kankakee","Illinois","Midwest",41.1377,-87.8618,0.405104018865285,60763,8.8
"634","peak 1","17093",1220.42857142857,"Kendall","Illinois","Midwest",41.5906,-88.4288,0.516595280741375,105586,8.4
"635","peak 1","17095",204.714285714286,"Knox","Illinois","Midwest",40.9318,-90.2132,0.461236802413273,43404,8.6
"636","peak 1","17097",11169.2857142857,"Lake","Illinois","Midwest",42.3233,-88.0037,0.610589066184656,92638,8.1
"637","peak 1","17099",377.857142857143,"LaSalle","Illinois","Midwest",41.344,-88.8859,0.418046681444778,59528,9.4
"638","peak 1","17101",31.1428571428571,"Lawrence","Illinois","Midwest",38.72,-87.7268,0.220959202740579,47114,8.7
"639","peak 1","17103",121.142857142857,"Lee","Illinois","Midwest",41.7461,-89.3003,0.389720194647202,57619,6.8
"640","peak 1","17105",65,"Livingston","Illinois","Midwest",40.8916,-88.5577,0.268720158378945,54422,6.7
"641","peak 1","17107",59.4285714285714,"Logan","Illinois","Midwest",40.1245,-89.3675,0.28885211373552,53806,6.7
"642","peak 1","17109",119.285714285714,"McDonough","Illinois","Midwest",40.4562,-90.6779,0.406349206349206,49048,7.1
"643","peak 1","17111",2631.57142857143,"McHenry","Illinois","Midwest",42.3244,-88.4523,0.474875135194254,89379,8.3
"644","peak 1","17113",431.571428571429,"McLean","Illinois","Midwest",40.4909,-88.8473,0.502729176440971,69230,6.8
"645","peak 1","17115",305.571428571429,"Macon","Illinois","Midwest",39.86,-88.9616,0.401866888047462,52259,9.9
"646","peak 1","17117",100.142857142857,"Macoupin","Illinois","Midwest",39.261,-89.9245,0.305982550893228,54174,6.9
"647","peak 1","17119",1662.85714285714,"Madison","Illinois","Midwest",38.8297,-89.9049,0.420448101891566,66591,7.7
"648","peak 1","17121",104.285714285714,"Marion","Illinois","Midwest",38.6496,-88.919,0.258632517722387,52291,9.3
"649","peak 1","17123",15.5714285714286,"Marshall","Illinois","Midwest",41.0332,-89.3448,0.315996847911742,63628,7.4
"650","peak 1","17125",36.7142857142857,"Mason","Illinois","Midwest",40.2396,-89.9168,0.293378657995862,51967,8
"651","peak 1","17127",25.4285714285714,"Massac","Illinois","Midwest",37.219,-88.7077,0.253006746846583,54159,10
"652","peak 1","17129",37,"Menard","Illinois","Midwest",40.0274,-89.8022,0.29076790336497,77306,6.4
"653","peak 1","17131",41,"Mercer","Illinois","Midwest",41.2053,-90.7414,0.367960511554858,62241,8
"654","peak 1","17133",209.857142857143,"Monroe","Illinois","Midwest",38.2784,-90.1773,0.309770819579364,90904,5.6
"655","peak 1","17135",115.571428571429,"Montgomery","Illinois","Midwest",39.231,-89.4789,0.283772981614708,51665,8.7
"656","peak 1","17137",149.142857142857,"Morgan","Illinois","Midwest",39.7156,-90.2015,0.331050675014674,55937,6.9
"657","peak 1","17139",38,"Moultrie","Illinois","Midwest",39.6415,-88.6193,0.24644128113879,65472,5
"658","peak 1","17141",358.857142857143,"Ogle","Illinois","Midwest",42.0426,-89.3207,0.35793470007593,63565,8.1
"659","peak 1","17143",922.142857142857,"Peoria","Illinois","Midwest",40.788,-89.76,0.518952520453003,57717,10.4
"660","peak 1","17145",79,"Perry","Illinois","Midwest",38.0837,-89.367,0.25935855426472,56880,9.4
"661","peak 1","17147",30.5714285714286,"Piatt","Illinois","Midwest",40.0103,-88.5911,0.337935235001523,72265,5.4
"662","peak 1","17149",9.42857142857143,"Pike","Illinois","Midwest",39.6225,-90.8863,0.18631512868801,54309,6
"663","peak 1","17151",3.42857142857143,"Pope","Illinois","Midwest",37.4127,-88.5615,0.199080459770115,46478,7.9
"664","peak 1","17153",88.2857142857143,"Pulaski","Illinois","Midwest",37.223,-89.1266,0.338654503990878,38506,11.7
"665","peak 1","17155",4.57142857142857,"Putnam","Illinois","Midwest",41.2045,-89.2858,0.394690265486726,74367,8.3
"666","peak 1","17157",384.428571428571,"Randolph","Illinois","Midwest",38.0521,-89.8252,0.240912139503689,58444,7.1
"667","peak 1","17159",10,"Richland","Illinois","Midwest",38.7124,-88.0851,0.226962668981769,49775,6.8
"668","peak 1","17161",1420.14285714286,"Rock Island","Illinois","Midwest",41.4673,-90.5674,0.549126719248096,57772,9.4
"669","peak 1","17163",3282.28571428571,"St. Clair","Illinois","Midwest",38.4703,-89.9284,0.533355710984825,57726,9
"670","peak 1","17165",67.1428571428571,"Saline","Illinois","Midwest",37.7531,-88.5407,0.251510505906754,48547,9.7
"671","peak 1","17167",756.285714285714,"Sangamon","Illinois","Midwest",39.7582,-89.6589,0.466983608748365,61768,8.2
"672","peak 1","17169",14,"Schuyler","Illinois","Midwest",40.158,-90.6151,0.272588055130168,56015,6.2
"673","peak 1","17171",4.28571428571429,"Scott","Illinois","Midwest",39.6441,-90.4747,0.208682962422474,61231,6.6
"674","peak 1","17173",32.7142857142857,"Shelby","Illinois","Midwest",39.3911,-88.8055,0.206993469455237,61376,6.4
"675","peak 1","17175",6.14285714285714,"Stark","Illinois","Midwest",41.0934,-89.7975,0.282397782397782,54804,7.3
"676","peak 1","17177",296.571428571429,"Stephenson","Illinois","Midwest",42.3518,-89.6623,0.410694847605225,51786,7.3
"677","peak 1","17179",251.428571428571,"Tazewell","Illinois","Midwest",40.5075,-89.5134,0.359429986531694,66206,8.1
"678","peak 1","17181",255.142857142857,"Union","Illinois","Midwest",37.4713,-89.2551,0.289645103324349,51575,8.1
"679","peak 1","17183",151.714285714286,"Vermilion","Illinois","Midwest",40.1834,-87.7328,0.326243600278111,46295,8.8
"680","peak 1","17185",24.5714285714286,"Wabash","Illinois","Midwest",38.4461,-87.8443,0.223470661672909,54249,8.3
"681","peak 1","17187",160.142857142857,"Warren","Illinois","Midwest",40.8488,-90.615,0.389954568399798,53621,6.2
"682","peak 1","17189",38.8571428571429,"Washington","Illinois","Midwest",38.3522,-89.4105,0.207170811766191,64297,5.3
"683","peak 1","17191",27.4285714285714,"Wayne","Illinois","Midwest",38.4296,-88.4256,0.139663489822332,51829,8.3
"684","peak 1","17193",36.7142857142857,"White","Illinois","Midwest",38.0875,-88.1796,0.204144798815772,51388,7.6
"685","peak 1","17195",261.142857142857,"Whiteside","Illinois","Midwest",41.7562,-89.9141,0.447598173515982,50880,8
"686","peak 1","17197",7909.14285714286,"Will","Illinois","Midwest",41.445,-87.9786,0.531137911316733,90249,9.5
"687","peak 1","17199",231,"Williamson","Illinois","Midwest",37.7303,-88.9299,0.302588277150227,56958,8.7
"688","peak 1","17201",3429.71428571429,"Winnebago","Illinois","Midwest",42.3363,-89.1609,0.501573878318064,59510,11.4
"689","peak 1","17203",68,"Woodford","Illinois","Midwest",40.7882,-89.2111,0.286538282630942,77117,6.1
"690","peak 1","18001",65.5714285714286,"Adams","Indiana","Midwest",40.7457,-84.9366,0.227742979801534,53532,5.6
"691","peak 1","18003",3275.57142857143,"Allen","Indiana","Midwest",41.0909,-85.0666,0.432860978696727,56838,7.7
"692","peak 1","18005",663.285714285714,"Bartholomew","Indiana","Midwest",39.206,-85.8976,0.356947702497585,71181,6.5
"693","peak 1","18007",54.5714285714286,"Benton","Indiana","Midwest",40.6063,-87.3109,0.245260087506077,55016,5.2
"694","peak 1","18009",50.8571428571429,"Blackford","Indiana","Midwest",40.4736,-85.3248,0.257196261682243,46811,8
"695","peak 1","18011",576.428571428571,"Boone","Indiana","Midwest",40.0508,-86.4687,0.395742471443406,84137,4.3
"696","peak 1","18013",59,"Brown","Indiana","Midwest",39.1962,-86.2274,0.338046988085959,59617,6.7
"697","peak 1","18015",120.285714285714,"Carroll","Indiana","Midwest",40.5828,-86.5635,0.234228541337546,58965,6
"698","peak 1","18017",1694.14285714286,"Cass","Indiana","Midwest",40.7615,-86.346,0.283195157257534,51777,6.8
"699","peak 1","18019",861.714285714286,"Clark","Indiana","Midwest",38.4772,-85.7073,0.399056489657675,59441,7.2
"700","peak 1","18021",77.1428571428571,"Clay","Indiana","Midwest",39.3928,-87.1158,0.208037825059102,54349,6.6
"701","peak 1","18023",317.428571428571,"Clinton","Indiana","Midwest",40.3017,-86.4751,0.259556722526836,55336,5.6
"702","peak 1","18025",38.7142857142857,"Crawford","Indiana","Midwest",38.2924,-86.4517,0.274069579288026,44332,7.1
"703","peak 1","18027",188.571428571429,"Daviess","Indiana","Midwest",38.7024,-87.072,0.181445541241425,56611,3.8
"704","peak 1","18029",369.285714285714,"Dearborn","Indiana","Midwest",39.1452,-84.9732,0.214553047315132,71351,6.9
"705","peak 1","18031",290.142857142857,"Decatur","Indiana","Midwest",39.307,-85.5011,0.198502482298364,60891,7.5
"706","peak 1","18033",187.857142857143,"DeKalb","Indiana","Midwest",41.3976,-84.9991,0.253005909924598,59714,6.9
"707","peak 1","18035",533.142857142857,"Delaware","Indiana","Midwest",40.2275,-85.3969,0.424851113278413,45912,7.3
"708","peak 1","18037",490.285714285714,"Dubois","Indiana","Midwest",38.3643,-86.8798,0.289021589343133,63869,4.5
"709","peak 1","18039",4282.42857142857,"Elkhart","Indiana","Midwest",41.5974,-85.8587,0.350975304824768,55782,7.5
"710","peak 1","18041",183.285714285714,"Fayette","Indiana","Midwest",39.64,-85.1788,0.220698500394633,48499,9.9
"711","peak 1","18043",532.714285714286,"Floyd","Indiana","Midwest",38.3189,-85.9068,0.418903401751112,64614,6.5
"712","peak 1","18045",47.8571428571429,"Fountain","Indiana","Midwest",40.1209,-87.242,0.203981968444778,55337,6.5
"713","peak 1","18047",169.428571428571,"Franklin","Indiana","Midwest",39.4149,-85.0602,0.178083333333333,67315,5.9
"714","peak 1","18049",102,"Fulton","Indiana","Midwest",41.047,-86.2635,0.249262053132174,55011,6.6
"715","peak 1","18051",172,"Gibson","Indiana","Midwest",38.3119,-87.5846,0.248932615555968,61872,6.2
"716","peak 1","18053",615.285714285714,"Grant","Indiana","Midwest",40.5158,-85.6547,0.295113958540447,47509,6.3
"717","peak 1","18055",220,"Greene","Indiana","Midwest",39.0364,-86.962,0.229234307359307,51918,6.2
"718","peak 1","18057",2112.85714285714,"Hamilton","Indiana","Midwest",40.0725,-86.052,0.455620905262398,107710,4.7
"719","peak 1","18059",544.142857142857,"Hancock","Indiana","Midwest",39.8236,-85.7733,0.300505697839715,77905,5.6
"720","peak 1","18061",240.714285714286,"Harrison","Indiana","Midwest",38.1952,-86.1113,0.264034394149041,64270,6.3
"721","peak 1","18063",1622,"Hendricks","Indiana","Midwest",39.7695,-86.51,0.368385966894526,85827,5
"722","peak 1","18065",337.571428571429,"Henry","Indiana","Midwest",39.9311,-85.3964,0.263623395149786,49293,6.6
"723","peak 1","18067",712,"Howard","Indiana","Midwest",40.4836,-86.117,0.327418163918287,54048,10.9
"724","peak 1","18069",113,"Huntington","Indiana","Midwest",40.8292,-85.4881,0.238656122048348,54565,6.6
"725","peak 1","18071",518.714285714286,"Jackson","Indiana","Midwest",38.9064,-86.0375,0.22361991891049,59472,7.2
"726","peak 1","18073",170.285714285714,"Jasper","Indiana","Midwest",41.023,-87.1161,0.245428109854604,65352,7
"727","peak 1","18075",78.8571428571429,"Jay","Indiana","Midwest",40.438,-85.0057,0.227632667533388,49447,6.6
"728","peak 1","18077",137.142857142857,"Jefferson","Indiana","Midwest",38.7858,-85.4385,0.321902429067157,53378,7.4
"729","peak 1","18079",191.714285714286,"Jennings","Indiana","Midwest",38.9969,-85.628,0.205942372051261,55022,7.6
"730","peak 1","18081",1527.57142857143,"Johnson","Indiana","Midwest",39.49,-86.1016,0.318688963900126,74427,5.6
"731","peak 1","18083",95.8571428571429,"Knox","Indiana","Midwest",38.6891,-87.418,0.254012866154519,48760,5.9
"732","peak 1","18085",739.285714285714,"Kosciusko","Indiana","Midwest",41.2441,-85.8607,0.233716153910638,64677,6.1
"733","peak 1","18087",511.571428571429,"LaGrange","Indiana","Midwest",41.6426,-85.4265,0.221480297188,70746,6.4
"734","peak 1","18089",6487.28571428571,"Lake","Indiana","Midwest",41.4171,-87.3822,0.567704449980905,57280,10.3
"735","peak 1","18091",723,"LaPorte","Indiana","Midwest",41.546,-86.74,0.454061386459346,56427,9.5
"736","peak 1","18093",288,"Lawrence","Indiana","Midwest",38.8412,-86.4835,0.235957193816885,56261,6.9
"737","peak 1","18095",749,"Madison","Indiana","Midwest",40.1616,-85.7194,0.376962137740621,54145,7.9
"738","peak 1","18097",13396.1428571429,"Marion","Indiana","Midwest",39.7817,-86.1385,0.635934079190183,50707,7.9
"739","peak 1","18099",685.571428571429,"Marshall","Indiana","Midwest",41.3248,-86.2618,0.286646258844783,53695,6.4
"740","peak 1","18101",37.1428571428571,"Martin","Indiana","Midwest",38.708,-86.8031,0.19653965785381,56735,4.2
"741","peak 1","18103",226.571428571429,"Miami","Indiana","Midwest",40.7695,-86.045,0.22351965729289,53658,8.2
"742","peak 1","18105",536,"Monroe","Indiana","Midwest",39.1609,-86.5231,0.631201406153505,53113,5.5
"743","peak 1","18107",311.857142857143,"Montgomery","Indiana","Midwest",40.0404,-86.8933,0.244970345388999,54366,5.2
"744","peak 1","18109",389.714285714286,"Morgan","Indiana","Midwest",39.4816,-86.4462,0.215188473132553,63414,5.4
"745","peak 1","18111",103.857142857143,"Newton","Indiana","Midwest",40.9558,-87.3976,0.228948566226673,61457,6.9
"746","peak 1","18113",588.428571428571,"Noble","Indiana","Midwest",41.3986,-85.4175,0.242834809796769,60980,8.4
"747","peak 1","18115",34.4285714285714,"Ohio","Indiana","Midwest",38.9501,-84.9651,0.237041719342604,58294,7.4
"748","peak 1","18117",155.428571428571,"Orange","Indiana","Midwest",38.5418,-86.495,0.251811594202899,47931,11.1
"749","peak 1","18119",64,"Owen","Indiana","Midwest",39.3128,-86.8377,0.244345718901454,53387,6.3
"750","peak 1","18121",40.4285714285714,"Parke","Indiana","Midwest",39.7736,-87.2064,0.214377406931964,51554,5.5
"751","peak 1","18123",172.428571428571,"Perry","Indiana","Midwest",38.0796,-86.638,0.367232286172896,53908,6.5
"752","peak 1","18125",21.7142857142857,"Pike","Indiana","Midwest",38.3988,-87.2322,0.227491961414791,52378,5.9
"753","peak 1","18127",985.571428571429,"Porter","Indiana","Midwest",41.4605,-87.0673,0.45944352610711,74064,8.1
"754","peak 1","18129",127.428571428571,"Posey","Indiana","Midwest",38.0218,-87.8685,0.287926866122696,68435,4.9
"755","peak 1","18131",70.5714285714286,"Pulaski","Indiana","Midwest",41.0419,-86.6988,0.251980709610747,52432,6.1
"756","peak 1","18133",204.857142857143,"Putnam","Indiana","Midwest",39.6663,-86.845,0.237753810929686,64098,6.2
"757","peak 1","18135",116.142857142857,"Randolph","Indiana","Midwest",40.1576,-85.0114,0.227009936766034,50496,6.6
"758","peak 1","18137",167.714285714286,"Ripley","Indiana","Midwest",39.1035,-85.2624,0.194380211617967,61219,6.4
"759","peak 1","18139",101.571428571429,"Rush","Indiana","Midwest",39.62,-85.4658,0.221129601613717,54371,6.3
"760","peak 1","18141",2667,"St. Joseph","Indiana","Midwest",41.6167,-86.2899,0.519759107238932,53881,8.4
"761","peak 1","18143",213,"Scott","Indiana","Midwest",38.6851,-85.7475,0.265525046747367,50571,8.4
"762","peak 1","18145",757,"Shelby","Indiana","Midwest",39.5237,-85.7917,0.251263068380771,59798,7.1
"763","peak 1","18147",100.285714285714,"Spencer","Indiana","Midwest",38.0141,-87.0077,0.298356393351286,59183,5.6
"764","peak 1","18149",145.142857142857,"Starke","Indiana","Midwest",41.2809,-86.6476,0.257531584062196,54001,8
"765","peak 1","18151",170.142857142857,"Steuben","Indiana","Midwest",41.6439,-85.0009,0.279235243162975,59444,6.2
"766","peak 1","18153",68.2857142857143,"Sullivan","Indiana","Midwest",39.0888,-87.4147,0.239381810095619,53375,7
"767","peak 1","18155",38.4285714285714,"Switzerland","Indiana","Midwest",38.8262,-85.037,0.232065479056331,52482,8.1
"768","peak 1","18157",928.285714285714,"Tippecanoe","Indiana","Midwest",40.3886,-86.8941,0.490104691523906,51228,6.3
"769","peak 1","18159",61.4285714285714,"Tipton","Indiana","Midwest",40.3113,-86.0519,0.225973385904386,69960,6.1
"770","peak 1","18161",41.1428571428571,"Union","Indiana","Midwest",39.6256,-84.9251,0.21131208728108,53866,5.5
"771","peak 1","18163",1294,"Vanderburgh","Indiana","Midwest",38.025,-87.5858,0.443138214313306,51603,7.2
"772","peak 1","18165",21.5714285714286,"Vermillion","Indiana","Midwest",39.8538,-87.464,0.286726373479481,50723,7.5
"773","peak 1","18167",335.428571428571,"Vigo","Indiana","Midwest",39.4306,-87.39,0.415722347111988,48082,7.9
"774","peak 1","18169",138.428571428571,"Wabash","Indiana","Midwest",40.8457,-85.794,0.239758457421258,59874,6.1
"775","peak 1","18171",18.8571428571429,"Warren","Indiana","Midwest",40.3469,-87.3533,0.217799642218247,64109,5.4
"776","peak 1","18173",392.142857142857,"Warrick","Indiana","Midwest",38.0922,-87.2721,0.352449082148452,79644,5.4
"777","peak 1","18175",80.2857142857143,"Washington","Indiana","Midwest",38.6,-86.1053,0.229343438503995,51948,6.9
"778","peak 1","18177",454.857142857143,"Wayne","Indiana","Midwest",39.8644,-85.0098,0.344087575418187,47885,6.8
"779","peak 1","18179",122.571428571429,"Wells","Indiana","Midwest",40.7292,-85.2212,0.208398576512456,61636,5.7
"780","peak 1","18181",312.428571428571,"White","Indiana","Midwest",40.7498,-86.8655,0.271538599319362,58295,5
"781","peak 1","18183",126.142857142857,"Whitley","Indiana","Midwest",41.1394,-85.5051,0.241171109592162,67347,5.9
"782","peak 1","19001",20.4285714285714,"Adair","Iowa","Midwest",41.3307,-94.471,0.286808714388317,57977,4
"783","peak 1","19003",12.1428571428571,"Adams","Iowa","Midwest",41.029,-94.6992,0.273148148148148,53385,3.8
"784","peak 1","19005",143.428571428571,"Allamakee","Iowa","Midwest",43.2843,-91.3781,0.347076259768257,56240,5.1
"785","peak 1","19007",34.5714285714286,"Appanoose","Iowa","Midwest",40.7432,-92.8686,0.290208717004297,41672,5.3
"786","peak 1","19009",23.1428571428571,"Audubon","Iowa","Midwest",41.6846,-94.9058,0.313157894736842,53197,3.4
"787","peak 1","19011",103,"Benton","Iowa","Midwest",42.0802,-92.0657,0.35241087283158,70023,5
"788","peak 1","19013",2776.57142857143,"Black Hawk","Iowa","Midwest",42.4701,-92.3088,0.535296502635412,60010,6.2
"789","peak 1","19015",201.571428571429,"Boone","Iowa","Midwest",42.0365,-93.9316,0.410886571056063,63975,4.1
"790","peak 1","19017",152,"Bremer","Iowa","Midwest",42.7746,-92.3181,0.409597140107246,67229,3.9
"791","peak 1","19019",83.2857142857143,"Buchanan","Iowa","Midwest",42.4708,-91.8379,0.386950064971227,67906,4.6
"792","peak 1","19021",1766.14285714286,"Buena Vista","Iowa","Midwest",42.7355,-95.1511,0.362556630341619,57048,3.7
"793","peak 1","19023",89,"Butler","Iowa","Midwest",42.7316,-92.7902,0.299333168683626,57080,4.7
"794","peak 1","19025",71.5714285714286,"Calhoun","Iowa","Midwest",42.3852,-94.6404,0.279573982502853,57007,4.1
"795","peak 1","19027",152.571428571429,"Carroll","Iowa","Midwest",42.0362,-94.8606,0.304719894133216,61379,4
"796","peak 1","19029",32.8571428571429,"Cass","Iowa","Midwest",41.3315,-94.9278,0.302501374381528,53692,3.9
"797","peak 1","19031",105.714285714286,"Cedar","Iowa","Midwest",41.7723,-91.1324,0.405213491544427,71029,4.4
"798","peak 1","19033",490.571428571429,"Cerro Gordo","Iowa","Midwest",43.0816,-93.2608,0.459686567791269,54589,5.2
"799","peak 1","19035",92.4285714285714,"Cherokee","Iowa","Midwest",42.7356,-95.6238,0.297023626879411,59901,3.8
"800","peak 1","19037",42.1428571428571,"Chickasaw","Iowa","Midwest",43.0601,-92.3177,0.336751621173277,60111,4.7
"801","peak 1","19039",156.285714285714,"Clarke","Iowa","Midwest",41.029,-93.7852,0.313918629550321,57708,5.4
"802","peak 1","19041",162.857142857143,"Clay","Iowa","Midwest",43.0826,-95.1509,0.29680008919612,57174,4.5
"803","peak 1","19043",69.4285714285714,"Clayton","Iowa","Midwest",42.8447,-91.3414,0.348134250573275,53223,5.7
"804","peak 1","19045",201.571428571429,"Clinton","Iowa","Midwest",41.898,-90.532,0.437963300522542,56865,6.7
"805","peak 1","19047",690.571428571429,"Crawford","Iowa","Midwest",42.0372,-95.382,0.310315907184792,58077,5.2
"806","peak 1","19049",1618.28571428571,"Dallas","Iowa","Midwest",41.6849,-94.0398,0.479793652493663,97535,3.6
"807","peak 1","19051",47,"Davis","Iowa","Midwest",40.7477,-92.4097,0.246952705997075,57150,4
"808","peak 1","19053",16.2857142857143,"Decatur","Iowa","Midwest",40.7377,-93.7863,0.294426919032597,44873,3.8
"809","peak 1","19055",71,"Delaware","Iowa","Midwest",42.4712,-91.3673,0.315605318404479,70091,4
"810","peak 1","19057",122.571428571429,"Des Moines","Iowa","Midwest",40.9232,-91.1815,0.445630386851072,53547,7.5
"811","peak 1","19059",351,"Dickinson","Iowa","Midwest",43.3779,-95.1509,0.325595873354678,66211,5.1
"812","peak 1","19061",1291,"Dubuque","Iowa","Midwest",42.4688,-90.8825,0.47578162667359,62481,5.9
"813","peak 1","19063",129.714285714286,"Emmet","Iowa","Midwest",43.3779,-94.6784,0.313208324747579,55635,5
"814","peak 1","19065",68,"Fayette","Iowa","Midwest",42.8626,-91.8444,0.376497152955036,53142,5.5
"815","peak 1","19067",95.2857142857143,"Floyd","Iowa","Midwest",43.0599,-92.789,0.3949203187251,55369,6
"816","peak 1","19069",157.571428571429,"Franklin","Iowa","Midwest",42.7325,-93.2625,0.316959064327485,55847,3.8
"817","peak 1","19071",18.4285714285714,"Fremont","Iowa","Midwest",40.7456,-95.6047,0.280010370754472,60498,3.1
"818","peak 1","19073",37,"Greene","Iowa","Midwest",42.0362,-94.3968,0.34981214158592,55562,4.2
"819","peak 1","19075",61.2857142857143,"Grundy","Iowa","Midwest",42.4019,-92.7914,0.303188565145684,73683,4.4
"820","peak 1","19077",113.285714285714,"Guthrie","Iowa","Midwest",41.6837,-94.5011,0.311568042693455,64965,5
"821","peak 1","19079",215.142857142857,"Hamilton","Iowa","Midwest",42.3838,-93.7068,0.357925217172353,63234,4.4
"822","peak 1","19081",94.1428571428571,"Hancock","Iowa","Midwest",43.0819,-93.7343,0.272683084899546,62030,4.7
"823","peak 1","19083",120,"Hardin","Iowa","Midwest",42.3839,-93.2404,0.331071309378129,57103,4.6
"824","peak 1","19085",75.8571428571429,"Harrison","Iowa","Midwest",41.6829,-95.8168,0.299202942979767,63901,4
"825","peak 1","19087",101.714285714286,"Henry","Iowa","Midwest",40.988,-91.5445,0.328090563013424,57747,5.3
"826","peak 1","19089",43.5714285714286,"Howard","Iowa","Midwest",43.3568,-92.3172,0.357402178297701,58028,4.5
"827","peak 1","19091",71.5714285714286,"Humboldt","Iowa","Midwest",42.7765,-94.2072,0.270696452036794,56695,4.2
"828","peak 1","19093",27,"Ida","Iowa","Midwest",42.3869,-95.5135,0.23824369966225,58249,3.6
"829","peak 1","19095",70.2857142857143,"Iowa","Iowa","Midwest",41.6863,-92.0655,0.364093615274071,66861,4.4
"830","peak 1","19097",109.714285714286,"Jackson","Iowa","Midwest",42.1717,-90.5743,0.361832061068702,57687,6.1
"831","peak 1","19099",421.142857142857,"Jasper","Iowa","Midwest",41.686,-93.0538,0.383323424494649,67317,5.3
"832","peak 1","19101",68.8571428571429,"Jefferson","Iowa","Midwest",41.0318,-91.9489,0.482085054135506,51741,5.7
"833","peak 1","19103",1695.57142857143,"Johnson","Iowa","Midwest",41.6715,-91.5881,0.705739943471157,67295,4.8
"834","peak 1","19105",103.428571428571,"Jones","Iowa","Midwest",42.1212,-91.1315,0.383383383383383,63399,5.7
"835","peak 1","19107",25.7142857142857,"Keokuk","Iowa","Midwest",41.3365,-92.1786,0.26664152366585,54937,4.9
"836","peak 1","19109",71.8571428571429,"Kossuth","Iowa","Midwest",43.2042,-94.2067,0.296589658965897,59568,3.8
"837","peak 1","19111",67.7142857142857,"Lee","Iowa","Midwest",40.642,-91.4793,0.390880841400741,51089,6.5
"838","peak 1","19113",1715.42857142857,"Linn","Iowa","Midwest",42.079,-91.599,0.556057681746144,64783,6.4
"839","peak 1","19115",373.285714285714,"Louisa","Iowa","Midwest",41.2185,-91.2596,0.32370592648162,60544,5
"840","peak 1","19117",39,"Lucas","Iowa","Midwest",41.0294,-93.3277,0.27732181425486,53085,3.6
"841","peak 1","19119",84,"Lyon","Iowa","Midwest",43.3805,-96.2102,0.155471368206324,66139,2.5
"842","peak 1","19121",80,"Madison","Iowa","Midwest",41.3307,-94.0155,0.319014657980456,72578,5.7
"843","peak 1","19123",130.428571428571,"Mahaska","Iowa","Midwest",41.3352,-92.6409,0.25377060680463,59242,4.8
"844","peak 1","19125",118.857142857143,"Marion","Iowa","Midwest",41.3344,-93.0994,0.32123544093178,66381,4.2
"845","peak 1","19127",1248.14285714286,"Marshall","Iowa","Midwest",42.0358,-92.9988,0.450816056462285,55631,7.1
"846","peak 1","19129",63.7142857142857,"Mills","Iowa","Midwest",41.0334,-95.6213,0.3033381712627,72679,3.9
"847","peak 1","19131",71.8571428571429,"Mitchell","Iowa","Midwest",43.3564,-92.789,0.352627962899347,61247,3.4
"848","peak 1","19133",83.5714285714286,"Monona","Iowa","Midwest",42.0516,-95.9599,0.29758883248731,53104,4.8
"849","peak 1","19135",63.1428571428571,"Monroe","Iowa","Midwest",41.0298,-92.869,0.263698630136986,56397,5.2
"850","peak 1","19137",28.4285714285714,"Montgomery","Iowa","Midwest",41.0302,-95.1564,0.297165383893373,52715,4.7
"851","peak 1","19139",750.428571428571,"Muscatine","Iowa","Midwest",41.4839,-91.1127,0.453388805573025,61767,6
"852","peak 1","19141",109.428571428571,"O'Brien","Iowa","Midwest",43.0838,-95.6249,0.207787048073103,60298,3.4
"853","peak 1","19143",72.8571428571429,"Osceola","Iowa","Midwest",43.3786,-95.6237,0.180588942307692,60702,2.9
"854","peak 1","19145",40.7142857142857,"Page","Iowa","Midwest",40.7391,-95.1502,0.277098831030818,52179,5
"855","peak 1","19147",62.1428571428571,"Palo Alto","Iowa","Midwest",43.0821,-94.6781,0.306373537716821,55074,4.6
"856","peak 1","19149",397,"Plymouth","Iowa","Midwest",42.7378,-96.2141,0.246264448829997,69165,3.6
"857","peak 1","19151",110.142857142857,"Pocahontas","Iowa","Midwest",42.7342,-94.6787,0.244049176039759,56146,3.5
"858","peak 1","19153",8774.71428571429,"Polk","Iowa","Midwest",41.6855,-93.5735,0.565206469440204,67331,6
"859","peak 1","19155",984.571428571429,"Pottawattamie","Iowa","Midwest",41.3366,-95.5423,0.406064183280867,60322,5.2
"860","peak 1","19157",118.571428571429,"Poweshiek","Iowa","Midwest",41.6864,-92.5315,0.42465483234714,57741,4.9
"861","peak 1","19159",19.7142857142857,"Ringgold","Iowa","Midwest",40.7352,-94.244,0.261238025055269,50890,3.9
"862","peak 1","19161",75.2857142857143,"Sac","Iowa","Midwest",42.3862,-95.1054,0.250948509485095,59392,3.5
"863","peak 1","19163",1398.71428571429,"Scott","Iowa","Midwest",41.6371,-90.6232,0.506765731811359,65724,6.8
"864","peak 1","19165",128.714285714286,"Shelby","Iowa","Midwest",41.6851,-95.3102,0.288300220750552,60498,3.6
"865","peak 1","19167",548.714285714286,"Sioux","Iowa","Midwest",43.0826,-96.1779,0.158469371686526,71566,2.7
"866","peak 1","19169",1000.57142857143,"Story","Iowa","Midwest",42.0362,-93.465,0.571632900975744,64151,3.6
"867","peak 1","19171",514.857142857143,"Tama","Iowa","Midwest",42.0798,-92.5326,0.395335985853227,56281,5.1
"868","peak 1","19173",86,"Taylor","Iowa","Midwest",40.7374,-94.6964,0.229609110495537,51510,3.7
"869","peak 1","19175",59.8571428571429,"Union","Iowa","Midwest",41.0277,-94.2424,0.33322554567502,52914,5.9
"870","peak 1","19177",22.2857142857143,"Van Buren","Iowa","Midwest",40.7532,-91.95,0.230809812714323,50425,4.6
"871","peak 1","19179",770.142857142857,"Wapello","Iowa","Midwest",41.0306,-92.4095,0.372353355082198,50533,6
"872","peak 1","19181",436.857142857143,"Warren","Iowa","Midwest",41.3344,-93.5614,0.405103257192564,79557,4.6
"873","peak 1","19183",273.857142857143,"Washington","Iowa","Midwest",41.3356,-91.7179,0.387675308117297,63230,4.1
"874","peak 1","19185",12.1428571428571,"Wayne","Iowa","Midwest",40.7395,-93.3274,0.23383724670312,49962,4.5
"875","peak 1","19187",575.571428571429,"Webster","Iowa","Midwest",42.4279,-94.1818,0.371058242621479,53344,5.2
"876","peak 1","19189",62.4285714285714,"Winnebago","Iowa","Midwest",43.3775,-93.7341,0.357621440536013,50258,6.4
"877","peak 1","19191",65.1428571428571,"Winneshiek","Iowa","Midwest",43.2906,-91.8437,0.465600132625995,65482,4.9
"878","peak 1","19193",3514.42857142857,"Woodbury","Iowa","Midwest",42.3897,-96.0448,0.412327498787531,58419,5.3
"879","peak 1","19195",47,"Worth","Iowa","Midwest",43.3774,-93.2608,0.361249434133092,60139,5.4
"880","peak 1","19197",423.428571428571,"Wright","Iowa","Midwest",42.7331,-93.7351,0.319155740326191,54251,4
"881","peak 1","20001",11.8571428571429,"Allen","Kansas","Midwest",37.8857,-95.3014,0.266860664156111,46690,5.4
"882","peak 1","20003",24.7142857142857,"Anderson","Kansas","Midwest",38.2142,-95.2933,0.205645161290323,51352,4.1
"883","peak 1","20005",52.5714285714286,"Atchison","Kansas","Midwest",39.5318,-95.3135,0.316466083150985,51860,6.9
"884","peak 1","20007",3.71428571428571,"Barber","Kansas","Midwest",37.2289,-98.6848,0.122784262862084,50660,3.4
"885","peak 1","20009",85.4285714285714,"Barton","Kansas","Midwest",38.479,-98.7565,0.210017334184837,50754,4.6
"886","peak 1","20011",64.7142857142857,"Bourbon","Kansas","Midwest",37.8552,-94.8493,0.229770992366412,47452,5.6
"887","peak 1","20013",25,"Brown","Kansas","Midwest",39.8265,-95.5642,0.247497725204732,47558,4.5
"888","peak 1","20015",155.714285714286,"Butler","Kansas","Midwest",37.7812,-96.839,0.281819320102673,66199,6.5
"889","peak 1","20017",6,"Chase","Kansas","Midwest",38.302,-96.5939,0.230717185385656,51022,5.5
"890","peak 1","20019",5,"Chautauqua","Kansas","Midwest",37.15,-96.2454,0.129742962056304,43664,6.1
"891","peak 1","20021",64.5714285714286,"Cherokee","Kansas","Midwest",37.1693,-94.8463,0.241811067635551,47682,5.2
"892","peak 1","20023",2,"Cheyenne","Kansas","Midwest",39.7859,-101.7313,0.157142857142857,47323,2.2
"893","peak 1","20025",38.8571428571429,"Clark","Kansas","Midwest",37.2355,-99.8203,0.136450381679389,59085,2
"894","peak 1","20027",13.8571428571429,"Clay","Kansas","Midwest",39.3497,-97.1652,0.21359458151911,52781,4.5
"895","peak 1","20029",27,"Cloud","Kansas","Midwest",39.4803,-97.6493,0.21394345951126,46299,4.1
"896","peak 1","20031",62.1428571428571,"Coffey","Kansas","Midwest",38.2369,-95.7341,0.20863309352518,62715,5.2
"897","peak 1","20033",3,"Comanche","Kansas","Midwest",37.1913,-99.2718,0.139380530973451,47854,3.5
"898","peak 1","20035",123.142857142857,"Cowley","Kansas","Midwest",37.2377,-96.8375,0.29983466321616,51537,6.5
"899","peak 1","20037",360.428571428571,"Crawford","Kansas","Midwest",37.5073,-94.8518,0.369601626988874,42723,5.5
"900","peak 1","20039",5.14285714285714,"Decatur","Kansas","Midwest",39.7847,-100.4599,0.142661179698217,46878,3.7
"901","peak 1","20041",33.2857142857143,"Dickinson","Kansas","Midwest",38.8665,-97.1527,0.220635950681376,58066,4.9
