"","peaks","fips","cases","county","state","Region","lat","lng","population","per_dem","urban_code","median.income","unemployed.rate"
"1","peak 1","01001",12.1428571428571,"Autauga","Alabama","South",32.5349,-86.6427,55380,0.270183651422398,2,58233,4.9
"2","peak 1","01003",99.2857142857143,"Baldwin","Alabama","South",30.7275,-87.7226,212830,0.22409029987509,3,59871,5.6
"3","peak 1","01005",8.42857142857143,"Barbour","Alabama","South",31.8696,-85.3932,25361,0.457881726563986,6,35972,7
"4","peak 1","01007",6.42857142857143,"Bibb","Alabama","South",32.9986,-87.1265,22493,0.206982803543512,1,47918,6.6
"5","peak 1","01009",19.8571428571429,"Blount","Alabama","South",33.9809,-86.5674,57681,0.0956937799043062,1,52902,4.1
"6","peak 1","01011",2.14285714285714,"Bullock","Alabama","South",32.1005,-85.7157,10248,0.747019293301539,6,31906,5.5
"7","peak 1","01013",5,"Butler","Alabama","South",31.7524,-86.6803,19828,0.41789629005059,6,39944,8.8
"8","peak 1","01015",40.1428571428571,"Calhoun","Alabama","South",33.7714,-85.826,114618,0.298452425318243,3,47747,7.1
"9","peak 1","01017",7.71428571428571,"Chambers","Alabama","South",32.9143,-85.392,33660,0.416448573671814,6,42015,6.8
"10","peak 1","01019",4.28571428571429,"Cherokee","Alabama","South",34.1759,-85.6038,25903,0.132021786846598,6,45982,4.6
"11","peak 1","01021",17.1428571428571,"Chilton","Alabama","South",32.8479,-86.7188,44055,0.159140341791818,1,49692,5
"12","peak 1","01023",2.85714285714286,"Choctaw","Alabama","South",32.0198,-88.2632,12925,0.418944265809218,9,39808,6.7
"13","peak 1","01025",7.71428571428571,"Clarke","Alabama","South",31.6767,-87.8308,24128,0.438142367719833,7,43822,9
"14","peak 1","01027",6.28571428571429,"Clay","Alabama","South",33.269,-85.8606,13337,0.182828282828283,9,40562,4
"15","peak 1","01029",2.14285714285714,"Cleburne","Alabama","South",33.6745,-85.5188,14916,0.0933997509339975,8,51276,4.6
"16","peak 1","01031",13.8571428571429,"Coffee","Alabama","South",31.4027,-85.9882,51662,0.227878787878788,4,57299,4.4
"17","peak 1","01033",17.4285714285714,"Colbert","Alabama","South",34.7005,-87.8049,54771,0.299182385426379,3,46683,6.6
"18","peak 1","01035",6.71428571428571,"Conecuh","Alabama","South",31.4292,-86.9937,12394,0.460487501940692,7,41539,7.3
"19","peak 1","01037",2.28571428571429,"Coosa","Alabama","South",32.9362,-86.2477,10757,0.327797043256069,8,42024,5.5
"20","peak 1","01039",16.8571428571429,"Covington","Alabama","South",31.2485,-86.4513,37200,0.156110154905336,6,44836,4.9
"21","peak 1","01041",8.28571428571429,"Crenshaw","Alabama","South",31.7315,-86.3135,13844,0.256914009369805,8,43309,5.7
"22","peak 1","01043",19.2857142857143,"Cullman","Alabama","South",34.1319,-86.8676,82853,0.106998638025376,4,50897,4.3
"23","peak 1","01045",20.7142857142857,"Dale","Alabama","South",31.4318,-85.611,49277,0.261931300030398,4,45120,4.9
"24","peak 1","01047",10.4285714285714,"Dallas","Alabama","South",32.326,-87.1065,39149,0.6846171070309,4,34034,10.7
"25","peak 1","01049",25.1428571428571,"DeKalb","Alabama","South",34.4598,-85.8041,71310,0.145830494617795,6,44277,4.5
"26","peak 1","01051",26.1428571428571,"Elmore","Alabama","South",32.5966,-86.1492,81144,0.252668778942237,2,62310,4.9
"27","peak 1","01053",28.4285714285714,"Escambia","Alabama","South",31.1261,-87.1616,37057,0.309113764927718,6,42712,6
"28","peak 1","01055",42.8571428571429,"Etowah","Alabama","South",34.0453,-86.0348,102748,0.242352497485753,3,43047,7.7
"29","peak 1","01057",2.71428571428571,"Fayette","Alabama","South",33.7212,-87.7389,16494,0.159137577002053,6,44212,5
"30","peak 1","01059",8,"Franklin","Alabama","South",34.4417,-87.8437,31466,0.165845126411194,6,44874,4.4
"31","peak 1","01061",6.28571428571429,"Geneva","Alabama","South",31.0951,-85.8391,26417,0.127142287764049,3,43089,4.1
"32","peak 1","01063",1.85714285714286,"Greene","Alabama","South",32.8531,-87.9522,8324,0.813403141361257,8,28699,10.9
"33","peak 1","01065",3.57142857142857,"Hale","Alabama","South",32.7627,-87.6291,14809,0.591643524362535,3,40745,9.4
"34","peak 1","01067",3.85714285714286,"Henry","Alabama","South",31.5147,-85.2414,17133,0.280275328027533,3,48597,4.8
"35","peak 1","01069",27.7142857142857,"Houston","Alabama","South",31.1532,-85.3025,104702,0.279752236155329,3,50138,5.4
"36","peak 1","01071",10.8571428571429,"Jackson","Alabama","South",34.7795,-85.9994,51852,0.157260111694026,6,44322,5.3
"37","peak 1","01073",200.285714285714,"Jefferson","Alabama","South",33.5543,-86.8964,659680,0.557585131717856,1,54127,6.2
"38","peak 1","01075",4.28571428571429,"Lamar","Alabama","South",33.7791,-88.097,13885,0.135965522035312,8,42686,4.9
"39","peak 1","01077",17.2857142857143,"Lauderdale","Alabama","South",34.9014,-87.654,92556,0.268725050181556,3,48188,5.5
"40","peak 1","01079",8.57142857142857,"Lawrence","Alabama","South",34.5217,-87.311,33058,0.222194498159815,3,47797,4.9
"41","peak 1","01081",36.1428571428571,"Lee","Alabama","South",32.6011,-85.3555,161152,0.38992848045459,3,54160,5.2
"42","peak 1","01083",19.1428571428571,"Limestone","Alabama","South",34.8101,-86.9814,94727,0.277688636132832,2,64729,4.3
"43","peak 1","01085",2.71428571428571,"Lowndes","Alabama","South",32.1547,-86.6501,10079,0.727432333577176,2,33930,13.3
"44","peak 1","01087",3.71428571428571,"Macon","Alabama","South",32.3859,-85.6927,18708,0.814857273873667,6,34281,9.6
"45","peak 1","01089",95.7142857142857,"Madison","Alabama","South",34.7631,-86.5502,362276,0.44815600178675,2,68609,4.6
"46","peak 1","01091",7.28571428571429,"Marengo","Alabama","South",32.2477,-87.7895,19321,0.50348623853211,7,38838,6.2
"47","peak 1","01093",7.42857142857143,"Marion","Alabama","South",34.1366,-87.8871,29866,0.105960744549866,7,44675,5.1
"48","peak 1","01095",39.7142857142857,"Marshall","Alabama","South",34.367,-86.3066,95643,0.149867608120035,4,48913,4.2
"49","peak 1","01097",149.714285714286,"Mobile","Alabama","South",30.7872,-88.2058,414114,0.433895306938045,2,49492,7.9
"50","peak 1","01099",8.71428571428571,"Monroe","Alabama","South",31.5709,-87.3655,21270,0.417604049493813,7,40005,8.2
"51","peak 1","01101",69,"Montgomery","Alabama","South",32.2203,-86.2076,226941,0.650894199053854,2,52711,7.8
"52","peak 1","01103",30.4285714285714,"Morgan","Alabama","South",34.4535,-86.8529,119213,0.24634228062991,3,54355,4.5
"53","peak 1","01105",8.42857142857143,"Perry","Alabama","South",32.6385,-87.2944,9293,0.738049713193117,8,29572,10.9
"54","peak 1","01107",3.57142857142857,"Pickens","Alabama","South",33.2808,-88.0888,20243,0.416011584609019,3,40249,6.5
"55","peak 1","01109",7.42857142857143,"Pike","Alabama","South",31.8027,-85.9409,33333,0.407196011848855,6,41271,4.9
"56","peak 1","01111",4.57142857142857,"Randolph","Alabama","South",33.2938,-85.4591,22647,0.203285041985789,6,42922,4.7
"57","peak 1","01113",17,"Russell","Alabama","South",32.2884,-85.1849,57952,0.526419428946505,2,43670,5.1
"58","peak 1","01115",25.2857142857143,"St. Clair","Alabama","South",33.7157,-86.3146,87989,0.17425350464661,1,65403,4.9
"59","peak 1","01117",57.7142857142857,"Shelby","Alabama","South",33.2643,-86.6607,213432,0.289412788168769,1,77801,3.9
"60","peak 1","01119",2.57142857142857,"Sumter","Alabama","South",32.5911,-88.1988,12797,0.738833253854713,8,29209,7
"61","peak 1","01121",23.2857142857143,"Talladega","Alabama","South",33.3801,-86.1659,80387,0.368393012365757,4,47719,7
"62","peak 1","01123",10.1428571428571,"Tallapoosa","Alabama","South",32.8624,-85.7975,40541,0.279119622695441,6,47100,6.9
"63","peak 1","01125",48,"Tuscaloosa","Alabama","South",33.2896,-87.5251,207305,0.418810717295835,3,52307,6.6
"64","peak 1","01127",15.8571428571429,"Walker","Alabama","South",33.8033,-87.2973,64110,0.155085017645172,1,45991,5.8
"65","peak 1","01129",7.42857142857143,"Washington","Alabama","South",31.4076,-88.2078,16541,0.254393871113114,8,48864,8
"66","peak 1","01131",5.28571428571429,"Wilcox","Alabama","South",31.9893,-87.3082,10681,0.685753006945621,9,30998,14.7
"67","peak 1","01133",4.57142857142857,"Winston","Alabama","South",34.1492,-87.3737,23784,0.0863169088975541,6,40827,4.7
"68","peak 1","02013",0.142857142857143,"Aleutians East Borough","Alaska","West",55.3665,-161.9813,3385,NA,9,66923,4
"69","peak 1","02016",0.428571428571429,"Aleutians West Census Area","Alaska","West",52.798,-106.6061,5698,NA,9,84726,4.5
"70","peak 1","02020",54.8571428571429,"Anchorage","Alaska","West",61.1508,-149.1091,293531,NA,2,82512,7.4
"71","peak 1","02050",0.285714285714286,"Bethel Census Area","Alaska","West",60.9132,-159.818,18134,NA,7,48262,11.6
"72","peak 1","02068",0.142857142857143,"Denali Borough","Alaska","West",63.6716,-150.0117,2246,NA,8,78434,15.7
"73","peak 1","02070",0,"Dillingham Census Area","Alaska","West",59.7991,-158.2351,4961,NA,9,57436,8.2
"74","peak 1","02090",8,"Fairbanks North Star Borough","Alaska","West",64.8078,-146.5654,99072,NA,3,74076,6.4
"75","peak 1","02100",0.142857142857143,"Haines Borough","Alaska","West",59.1199,-135.5,2518,NA,9,62548,15.6
"76","peak 1","02110",2.71428571428571,"Juneau City and Borough","Alaska","West",58.4546,-134.1739,32227,NA,5,85419,6.6
"77","peak 1","02122",13.7142857142857,"Kenai Peninsula Borough","Alaska","West",60.2654,-151.5652,58464,NA,7,68625,9.1
"78","peak 1","02130",1.28571428571429,"Ketchikan Gateway Borough","Alaska","West",55.5852,-130.9288,13800,NA,7,75706,9.6
"79","peak 1","02150",0.142857142857143,"Kodiak Island Borough","Alaska","West",57.677,-153.7806,13451,NA,7,79669,6.2
"80","peak 1","02158",0,"Kusilvak Census Area","Alaska","West",62.155,-163.3826,8250,NA,9,35369,19.4
"81","peak 1","02170",5.57142857142857,"Matanuska-Susitna Borough","Alaska","West",62.3162,-149.5714,105369,NA,2,75856,8.3
"82","peak 1","02180",0.142857142857143,"Nome Census Area","Alaska","West",64.9111,-164.0272,9988,NA,7,58464,10.5
"83","peak 1","02185",0.285714285714286,"North Slope Borough","Alaska","West",69.3122,-153.481,9792,NA,7,84784,5.9
"84","peak 1","02188",0.857142857142857,"Northwest Arctic Borough","Alaska","West",67.053,-159.721,7715,NA,7,61660,12
"85","peak 1","02195",0,"Petersburg Borough","Alaska","West",57.1195,-132.9345,3257,NA,9,71296,8.7
"86","peak 1","02198",0.142857142857143,"Prince of Wales-Hyder Census Area","Alaska","West",55.7997,-133.0192,6407,NA,9,50049,9.2
"87","peak 1","02220",0.571428571428571,"Sitka City and Borough","Alaska","West",57.2401,-135.3153,8640,NA,7,80660,6.9
"88","peak 1","02240",0.285714285714286,"Southeast Fairbanks Census Area","Alaska","West",63.8763,-143.2118,6878,NA,9,69646,7.4
"89","peak 1","02261",3.28571428571429,"Valdez-Cordova Census Area","Alaska","West",61.562,-144.4686,9243,NA,9,74574,8.7
"90","peak 1","02275",0,"Wrangell City and Borough","Alaska","West",56.3317,-132.0223,2502,NA,9,62496,8.4
"91","peak 1","02290",1.85714285714286,"Yukon-Koyukuk Census Area","Alaska","West",65.5086,-151.3896,5377,NA,9,42063,12.1
"92","peak 1","02997",0.142857142857143,"Bristol Bay plus Lake and Peninsula","Alaska","West",NA,NA,NA,NA,NA,NA,NA
"93","peak 1","02998",0.285714285714286,"Yakutat plus Hoonah-Angoon","Alaska","West",NA,NA,NA,NA,NA,NA,NA
"94","peak 1","04001",25.7142857142857,"Apache","Arizona","West",35.3955,-109.4888,71511,0.662052695904272,6,35386,12.8
"95","peak 1","04003",18.2857142857143,"Cochise","Arizona","West",31.8796,-109.7512,125867,0.392439601144312,3,48650,7
"96","peak 1","04005",26.1428571428571,"Coconino","Arizona","West",35.8387,-111.7705,141274,0.609412919586617,3,58301,9.7
"97","peak 1","04007",20.1428571428571,"Gila","Arizona","West",33.7997,-110.8117,53546,0.323108606113158,4,45980,7.7
"98","peak 1","04009",9.71428571428571,"Graham","Arizona","West",32.9326,-109.8875,37996,0.269005068018138,7,50685,6.3
"99","peak 1","04011",1.28571428571429,"Greenlee","Arizona","West",33.2152,-109.2402,9522,0.320498915401302,7,68066,5.5
"100","peak 1","04012",4,"La Paz","Arizona","West",33.7294,-113.9816,20793,0.299731903485255,6,39407,7.1
"101","peak 1","04013",1709.42857142857,"Maricopa","Arizona","West",33.349,-112.4915,4328810,0.502916923374286,1,68634,7.4
"102","peak 1","04015",48.7142857142857,"Mohave","Arizona","West",35.7041,-113.758,207695,0.237151998471897,3,49712,10
"103","peak 1","04017",37.2857142857143,"Navajo","Arizona","West",35.3997,-110.3214,109270,0.45155746094278,4,40676,10.1
"104","peak 1","04019",195.571428571429,"Pima","Arizona","West",32.0974,-111.7899,1027207,0.585674095269187,2,56150,7.7
"105","peak 1","04021",116.714285714286,"Pinal","Arizona","West",32.9044,-111.3448,432793,0.405897198938591,1,62067,7.5
"106","peak 1","04023",23.5714285714286,"Santa Cruz","Arizona","West",31.5259,-110.8465,46480,0.671642554061653,4,47779,11.4
"107","peak 1","04025",20.7142857142857,"Yavapai","Arizona","West",34.5999,-112.554,228067,0.346189279731993,3,54242,7.5
"108","peak 1","04027",131.571428571429,"Yuma","Arizona","West",32.7695,-113.9056,209468,0.460629808654864,3,47024,17.1
"109","peak 1","05001",4.85714285714286,"Arkansas","Arkansas","South",34.2908,-91.3749,17914,0.28893833439288,6,52539,4
"110","peak 1","05003",6.14285714285714,"Ashley","Arkansas","South",33.1912,-91.7685,20270,0.26810497098158,7,47744,9.3
"111","peak 1","05005",1.57142857142857,"Baxter","Arkansas","South",36.2872,-92.337,41427,0.220640738801352,7,41950,5.9
"112","peak 1","05007",46,"Benton","Arkansas","South",36.3387,-94.2561,265759,0.352333377810394,2,70775,4.5
"113","peak 1","05009",4.14285714285714,"Boone","Arkansas","South",36.3086,-93.0915,37331,0.17903470842585,7,50083,5.3
"114","peak 1","05011",1.85714285714286,"Bradley","Arkansas","South",33.4664,-92.1624,10874,0.33223864258347,7,39982,5.8
"115","peak 1","05013",0.571428571428571,"Calhoun","Arkansas","South",33.558,-92.503,5192,0.219523373052246,9,48415,5.2
"116","peak 1","05015",5.14285714285714,"Carroll","Arkansas","South",36.341,-93.5382,27965,0.34101890311096,6,43841,5.7
"117","peak 1","05017",6.57142857142857,"Chicot","Arkansas","South",33.2672,-91.294,10615,0.550816475749452,7,37014,10.3
"118","peak 1","05019",4.14285714285714,"Clark","Arkansas","South",34.051,-93.1764,22386,0.409529481834425,7,44105,5.9
"119","peak 1","05021",2,"Clay","Arkansas","South",36.3683,-90.4175,14889,0.185606791433533,7,40686,6
"120","peak 1","05023",2.57142857142857,"Cleburne","Arkansas","South",35.5381,-92.0267,25100,0.156782334384858,6,46214,7.6
"121","peak 1","05025",2,"Cleveland","Arkansas","South",33.8984,-92.1852,8128,0.180833333333333,3,53773,6.1
"122","peak 1","05027",3.85714285714286,"Columbia","Arkansas","South",33.2143,-93.2273,23776,0.326601671309192,7,42964,6.8
"123","peak 1","05029",1.14285714285714,"Conway","Arkansas","South",35.2622,-92.7013,20858,0.301093839953944,6,46924,6
"124","peak 1","05031",29.4285714285714,"Craighead","Arkansas","South",35.8308,-90.6328,107345,0.309547921373114,3,47766,5.3
"125","peak 1","05033",12.4285714285714,"Crawford","Arkansas","South",35.5885,-94.2429,62739,0.205844506247146,2,44600,5.4
"126","peak 1","05035",19,"Crittenden","Arkansas","South",35.2079,-90.3089,48672,0.520193071424207,1,41976,8.3
"127","peak 1","05037",4.71428571428571,"Cross","Arkansas","South",35.2957,-90.7712,16824,0.255257850763469,6,45273,6.1
"128","peak 1","05039",1.57142857142857,"Dallas","Arkansas","South",33.9698,-92.6544,7279,0.363533408833522,6,41314,5.3
"129","peak 1","05041",2.57142857142857,"Desha","Arkansas","South",33.8333,-91.254,11709,0.484149855907781,6,37005,7
"130","peak 1","05043",3.28571428571429,"Drew","Arkansas","South",33.5895,-91.72,18417,0.351187029530979,6,44162,6.9
"131","peak 1","05045",19.5714285714286,"Faulkner","Arkansas","South",35.147,-92.332,123624,0.337087528477989,2,58482,5.4
"132","peak 1","05047",4.85714285714286,"Franklin","Arkansas","South",35.5123,-93.8906,17738,0.182353766306635,6,45670,5.6
"133","peak 1","05049",0.428571428571429,"Fulton","Arkansas","South",36.3817,-91.8182,12231,0.202187927329557,9,32926,5.1
"134","peak 1","05051",21.8571428571429,"Garland","Arkansas","South",34.5767,-93.1504,98555,0.317767370302496,3,45786,8
"135","peak 1","05053",4.28571428571429,"Grant","Arkansas","South",34.29,-92.4236,18126,0.154634146341463,2,58566,5.2
"136","peak 1","05055",7.57142857142857,"Greene","Arkansas","South",36.1176,-90.559,44937,0.189937888198758,4,47098,6
"137","peak 1","05057",5.14285714285714,"Hempstead","Arkansas","South",33.7353,-93.6685,21842,0.312207943925234,6,40867,5.2
"138","peak 1","05059",6.14285714285714,"Hot Spring","Arkansas","South",34.3176,-92.946,33597,0.245440789997611,6,45860,5.8
"139","peak 1","05061",8.28571428571429,"Howard","Arkansas","South",34.0888,-93.9935,13311,0.277203144393877,6,41427,5
"140","peak 1","05063",13.7142857142857,"Independence","Arkansas","South",35.7415,-91.5697,37427,0.193357221609702,7,47903,5.8
"141","peak 1","05065",0.857142857142857,"Izard","Arkansas","South",36.0949,-91.9134,13570,0.175731497418244,9,40233,8.4
"142","peak 1","05067",0.714285714285714,"Jackson","Arkansas","South",35.5992,-91.2145,17027,0.268120212139069,6,38636,7.1
"143","peak 1","05069",20.2857142857143,"Jefferson","Arkansas","South",34.2688,-91.9315,69282,0.595476587964067,3,40555,8
"144","peak 1","05071",10.5714285714286,"Johnson","Arkansas","South",35.5701,-93.4599,26372,0.240366392924826,7,40396,6.3
"145","peak 1","05073",1.14285714285714,"Lafayette","Arkansas","South",33.2409,-93.6071,6800,0.31317655841732,8,37164,7.6
"146","peak 1","05075",2.14285714285714,"Lawrence","Arkansas","South",36.0412,-91.1071,16549,0.184394741335155,6,39604,6.1
"147","peak 1","05077",1.57142857142857,"Lee","Arkansas","South",34.7806,-90.7821,9194,0.499648876404494,7,30421,7.5
"148","peak 1","05079",3.85714285714286,"Lincoln","Arkansas","South",33.9575,-91.7333,13455,0.266322580645161,3,44272,6
"149","peak 1","05081",2.14285714285714,"Little River","Arkansas","South",33.7005,-94.2343,12347,0.236816689202241,3,43257,6.4
"150","peak 1","05083",1.71428571428571,"Logan","Arkansas","South",35.2153,-93.7162,21668,0.187720364741641,6,42249,6.6
"151","peak 1","05085",12,"Lonoke","Arkansas","South",34.7542,-91.8888,72528,0.218054921401083,2,62782,5.5
"152","peak 1","05087",2,"Madison","Arkansas","South",36.011,-93.7245,16211,0.212624132771052,2,48016,3.9
"153","peak 1","05089",0.428571428571429,"Marion","Arkansas","South",36.2684,-92.6842,16476,0.204051712648274,9,38760,6.4
"154","peak 1","05091",8,"Miller","Arkansas","South",33.3121,-93.8916,43572,0.256821344303951,3,50905,6.9
"155","peak 1","05093",12.7142857142857,"Mississippi","Arkansas","South",35.7638,-90.0542,42126,0.369308053800032,4,39990,9
"156","peak 1","05095",1.14285714285714,"Monroe","Arkansas","South",34.6778,-91.2039,7050,0.407315340909091,7,34289,6.7
"157","peak 1","05097",0.571428571428571,"Montgomery","Arkansas","South",34.5388,-93.6596,8950,0.188742576813839,8,39591,6.8
"158","peak 1","05099",1,"Nevada","Arkansas","South",33.664,-93.3072,8351,0.320428826682549,7,36528,5.9
"159","peak 1","05101",9.57142857142857,"Newton","Arkansas","South",35.92,-93.2179,7812,0.177338669334667,9,37648,5
"160","peak 1","05103",1.71428571428571,"Ouachita","Arkansas","South",33.5934,-92.8819,23830,0.414892512202721,7,46393,6
"161","peak 1","05105",0.428571428571429,"Perry","Arkansas","South",34.9474,-92.9315,10355,0.218716230819105,2,50560,5.5
"162","peak 1","05107",5.14285714285714,"Phillips","Arkansas","South",34.4283,-90.848,18606,0.580422941364947,6,31521,9.1
"163","peak 1","05109",3.14285714285714,"Pike","Arkansas","South",34.1635,-93.6563,10756,0.151672162034856,9,44426,5.9
"164","peak 1","05111",3.28571428571429,"Poinsett","Arkansas","South",35.574,-90.663,23896,0.189336524398351,3,40536,5.5
"165","peak 1","05113",2.28571428571429,"Polk","Arkansas","South",34.4859,-94.2281,20094,0.146760895170789,7,39722,6.6
"166","peak 1","05115",24.2857142857143,"Pope","Arkansas","South",35.4476,-93.0342,63761,0.236247544204322,5,47519,5.9
"167","peak 1","05117",1,"Prairie","Arkansas","South",34.8298,-91.5528,8189,0.187124463519313,8,46205,5.3
"168","peak 1","05119",89.8571428571429,"Pulaski","Arkansas","South",34.77,-92.3119,392967,0.59984348890301,2,52684,7.4
"169","peak 1","05121",5.57142857142857,"Randolph","Arkansas","South",36.3415,-91.0277,17695,0.178361714621257,7,42875,5.9
"170","peak 1","05123",15.2857142857143,"St. Francis","Arkansas","South",35.022,-90.7478,25900,0.507034327518289,6,34389,7.9
"171","peak 1","05125",21,"Saline","Arkansas","South",34.6466,-92.6765,119415,0.281957197282256,2,66944,5.1
"172","peak 1","05127",1.42857142857143,"Scott","Arkansas","South",34.8608,-94.0633,10376,0.136018023092087,6,38065,4.5
"173","peak 1","05129",0.285714285714286,"Searcy","Arkansas","South",35.9109,-92.6996,7908,0.146305051007713,9,34712,6.4
"174","peak 1","05131",33.7142857142857,"Sebastian","Arkansas","South",35.1993,-94.2742,127591,0.307318625371235,2,48945,6
"175","peak 1","05133",5.57142857142857,"Sevier","Arkansas","South",33.9972,-94.2412,17081,0.214532871972318,6,43493,5.8
"176","peak 1","05135",1.57142857142857,"Sharp","Arkansas","South",36.1612,-91.4799,17139,0.1847739888977,7,37591,7.1
"177","peak 1","05137",1.57142857142857,"Stone","Arkansas","South",35.8599,-92.1567,12475,0.198720107780397,9,36930,7.1
"178","peak 1","05139",8,"Union","Arkansas","South",33.1713,-92.5972,39449,0.336243752634431,7,46602,8.3
"179","peak 1","05141",0.714285714285714,"Van Buren","Arkansas","South",35.5806,-92.5157,16642,0.20404764954528,8,38096,7.1
"180","peak 1","05143",61.1428571428571,"Washington","Arkansas","South",35.9791,-94.2156,232289,0.46489720577939,2,52158,4.6
"181","peak 1","05145",7.28571428571429,"White","Arkansas","South",35.2563,-91.7455,78762,0.193556742755383,4,46388,6.2
"182","peak 1","05147",0.142857142857143,"Woodruff","Arkansas","South",35.1863,-91.2431,6533,0.345718901453958,9,36568,5.8
"183","peak 1","05149",6.28571428571429,"Yell","Arkansas","South",35.0026,-93.4112,21464,0.19047619047619,6,44469,5.1
"184","peak 1","06001",159.142857142857,"Alameda","California","West",37.6469,-121.8889,1656754,0.802296249727225,1,107589,8.8
"185","peak 1","06003",0,"Alpine","California","West",38.5972,-119.8207,1039,0.642375168690958,8,58112,11.2
"186","peak 1","06005",3.42857142857143,"Amador","California","West",38.4464,-120.6511,38429,0.365572594386154,6,62640,9.1
"187","peak 1","06007",24.2857142857143,"Butte","California","West",39.6669,-121.6007,225817,0.494169067638815,3,58394,9.2
"188","peak 1","06009",2,"Calaveras","California","West",38.2046,-120.5541,45514,0.369827713149757,6,68248,7.6
"189","peak 1","06011",6,"Colusa","California","West",39.1775,-122.237,21454,0.406741290403723,6,59048,16
"190","peak 1","06013",171.714285714286,"Contra Costa","California","West",37.9191,-121.9278,1142251,0.716387660650689,1,106555,8.9
"191","peak 1","06015",3,"Del Norte","California","West",41.7431,-123.8972,27495,0.408400279427174,7,48979,9.5
"192","peak 1","06017",12.1428571428571,"El Dorado","California","West",38.7787,-120.5247,188563,0.444479842945461,1,86202,8.3
"193","peak 1","06019",318.142857142857,"Fresno","California","West",36.7582,-119.6493,984521,0.529112494483415,2,56926,11.3
"194","peak 1","06021",6.42857142857143,"Glenn","California","West",39.5982,-122.392,27976,0.353790294013461,6,55682,8.9
"195","peak 1","06023",2.42857142857143,"Humboldt","California","West",40.6993,-123.8756,135940,0.650432963328878,5,51134,8.4
"196","peak 1","06025",65.8571428571429,"Imperial","California","West",33.0395,-115.3654,180701,0.611410839592369,3,48102,22.5
"197","peak 1","06027",0.714285714285714,"Inyo","California","West",36.5111,-117.4107,17977,0.48876700769961,7,59605,7.8
"198","peak 1","06029",973.714285714286,"Kern","California","West",35.3429,-118.7299,887641,0.436941807054445,2,53245,12.5
"199","peak 1","06031",62.8571428571429,"Kings","California","West",36.0753,-119.8155,150691,0.426353230881481,3,57297,11.6
"200","peak 1","06033",3.14285714285714,"Lake","California","West",39.0996,-122.7532,64195,0.518784722222222,4,46897,9.6
"201","peak 1","06035",6.14285714285714,"Lassen","California","West",40.6736,-120.5943,30818,0.233541927409262,7,53613,7.1
"202","peak 1","06037",2135.71428571429,"Los Angeles","California","West",34.3207,-118.2248,10081570,0.710431686315497,1,72721,12.8
"203","peak 1","06039",40.7142857142857,"Madera","California","West",37.218,-119.7627,155433,0.431257213059827,3,61105,10.8
"204","peak 1","06041",39,"Marin","California","West",38.0734,-122.7234,259943,0.82340934910559,1,112069,6.7
"205","peak 1","06043",1.14285714285714,"Mariposa","California","West",37.5815,-119.9054,17420,0.397665369649805,8,52760,10.9
"206","peak 1","06045",8.28571428571429,"Mendocino","California","West",39.4402,-123.3915,87224,0.664159128669005,4,52309,8.9
"207","peak 1","06047",78.7142857142857,"Merced","California","West",37.1919,-120.7177,271382,0.541091881026275,2,59733,12.2
"208","peak 1","06051",4,"Mono","California","West",37.9391,-118.8868,14310,0.595665726584533,7,66226,11.8
"209","peak 1","06053",92.7142857142857,"Monterey","California","West",36.2172,-121.2392,433410,0.695331425468169,2,76509,10.8
"210","peak 1","06055",16.2857142857143,"Napa","California","West",38.5065,-122.3305,139623,0.690732370150578,3,90230,8.7
"211","peak 1","06057",4.14285714285714,"Nevada","California","West",39.3014,-120.7685,99244,0.561633043961815,4,69550,8
"212","peak 1","06059",626.714285714286,"Orange","California","West",33.703,-117.7611,3168044,0.534925167162266,1,95761,8.8
"213","peak 1","06061",35,"Placer","California","West",39.0635,-120.7175,385512,0.45472880685227,1,97688,7.3
"214","peak 1","06063",0.714285714285714,"Plumas","California","West",40.0046,-120.8385,18660,0.405206112295665,7,59376,10.7
"215","peak 1","06065",654.428571428571,"Riverside","California","West",33.7437,-115.9938,2411439,0.529982251775826,1,72905,9.9
"216","peak 1","06067",225.285714285714,"Sacramento","California","West",38.4493,-121.3443,1524553,0.613690849099946,1,71891,9.3
"217","peak 1","06069",11.1428571428571,"San Benito","California","West",36.6057,-121.075,60376,0.611637347767253,1,84209,9.9
"218","peak 1","06071",738,"San Bernardino","California","West",34.8414,-116.1784,2149031,0.542088470992269,1,67398,9.4
"219","peak 1","06073",407,"San Diego","California","West",33.0341,-116.7353,3316073,0.602258069752429,1,83576,9.2
"220","peak 1","06075",89.5714285714286,"San Francisco","California","West",37.7562,-122.443,874961,0.852743664563499,1,121795,7.8
"221","peak 1","06077",289.428571428571,"San Joaquin","California","West",37.9348,-121.2714,742603,0.558644168865252,2,68458,11.3
"222","peak 1","06079",32,"San Luis Obispo","California","West",35.3871,-120.4045,282165,0.55304012374672,2,76599,7.7
"223","peak 1","06081",67.4285714285714,"San Mateo","California","West",37.4229,-122.329,767423,0.778883727394705,1,135234,6.9
"224","peak 1","06083",105,"Santa Barbara","California","West",34.6729,-120.0165,444829,0.648880611918837,2,74530,8
"225","peak 1","06085",178,"Santa Clara","California","West",37.2318,-121.6951,1927470,0.72657379820863,1,132444,7
"226","peak 1","06087",23.8571428571429,"Santa Cruz","California","West",37.0562,-122.0018,273962,0.78901350866046,2,85770,9.5
"227","peak 1","06089",9.85714285714286,"Shasta","California","West",40.7637,-122.0405,179212,0.322927879440258,3,61464,8.7
"228","peak 1","06091",0,"Sierra","California","West",39.5803,-120.516,3040,0.378238341968912,8,55862,8
"229","peak 1","06093",1.42857142857143,"Siskiyou","California","West",41.5927,-122.5404,43468,0.40908315565032,6,45954,9.7
"230","peak 1","06095",52.8571428571429,"Solano","California","West",38.27,-121.9329,441829,0.639548950352474,2,85704,9.5
"231","peak 1","06097",51.1428571428571,"Sonoma","California","West",38.5283,-122.8874,499772,0.745336474658157,2,87084,7.9
"232","peak 1","06099",212.285714285714,"Stanislaus","California","West",37.5591,-120.9977,543194,0.492567806548893,2,62761,10.7
"233","peak 1","06101",15.4285714285714,"Sutter","California","West",39.0346,-121.6948,96109,0.407293621013133,3,60910,11
"234","peak 1","06103",4.57142857142857,"Tehama","California","West",40.1256,-122.2341,63912,0.310260784791616,4,51672,8.8
"235","peak 1","06105",0.142857142857143,"Trinity","California","West",40.6507,-123.1126,12700,0.45557686161713,8,43881,8
"236","peak 1","06107",202,"Tulare","California","West",36.2201,-118.8005,461898,0.450208401438379,2,56776,13.2
"237","peak 1","06109",3.57142857142857,"Tuolumne","California","West",38.0276,-119.9548,54045,0.394000197361929,4,64729,10.4
"238","peak 1","06111",130.571428571429,"Ventura","California","West",34.4565,-119.0836,847263,0.594722473255137,2,91446,8.6
"239","peak 1","06113",28.2857142857143,"Yolo","California","West",38.6866,-121.9016,217352,0.694995064977792,1,70951,7.5
"240","peak 1","06115",13.2857142857143,"Yuba","California","West",39.269,-121.3513,76360,0.377010105079397,3,56607,10.5
"241","peak 1","08001",64.8571428571429,"Adams","Colorado","West",39.8736,-104.3378,504108,0.566887025577122,1,75341,8
"242","peak 1","08003",1.71428571428571,"Alamosa","Colorado","West",37.5729,-105.7883,16107,0.481429303278689,7,38213,6.4
"243","peak 1","08005",66.5714285714286,"Arapahoe","Colorado","West",39.6498,-104.3392,644560,0.60998677834161,1,82364,7.9
"244","peak 1","08007",1.14285714285714,"Archuleta","Colorado","West",37.1935,-107.0483,13253,0.408792650918635,7,57604,7.6
"245","peak 1","08009",0,"Baca","Colorado","West",37.3192,-102.5604,3561,0.14247191011236,9,38945,2.3
"246","peak 1","08011",0,"Bent","Colorado","West",37.9551,-103.0717,5787,0.321899736147757,7,35764,4.4
"247","peak 1","08013",16.8571428571429,"Boulder","Colorado","West",40.0925,-105.3577,322510,0.771860793455953,2,88341,6.2
"248","peak 1","08014",2.85714285714286,"Broomfield","Colorado","West",39.9541,-105.0527,67886,0.623541773889175,1,106892,6.6
"249","peak 1","08015",8.85714285714286,"Chaffee","Colorado","West",38.747,-106.1941,19557,0.521980024786761,7,60331,6.3
"250","peak 1","08017",0.285714285714286,"Cheyenne","Colorado","West",38.828,-102.6035,2026,0.115316901408451,9,52337,2.4
"251","peak 1","08019",0.285714285714286,"Clear Creek","Colorado","West",39.6891,-105.6444,9495,0.550397067806964,1,79900,8.5
"252","peak 1","08021",0.142857142857143,"Conejos","Colorado","West",37.2007,-106.1916,8128,0.452111700900069,9,40944,5.6
"253","peak 1","08023",0,"Costilla","Colorado","West",37.2781,-105.4282,3745,0.626074498567335,9,34731,7.2
"254","peak 1","08025",0.142857142857143,"Crowley","Colorado","West",38.3266,-103.7845,5754,0.249714285714286,8,38224,5.4
"255","peak 1","08027",0.142857142857143,"Custer","Colorado","West",38.1087,-105.3675,4776,0.305998899284535,8,57381,5
"256","peak 1","08029",1.42857142857143,"Delta","Colorado","West",38.8614,-107.8629,30565,0.303923593185338,6,51525,6.6
"257","peak 1","08031",110.857142857143,"Denver","Colorado","West",39.7621,-104.8759,705576,0.795509195662055,1,75456,8.2
"258","peak 1","08033",0.142857142857143,"Dolores","Colorado","West",37.7517,-108.5174,1857,0.235334713595583,9,50232,6.9
"259","peak 1","08035",23.1428571428571,"Douglas","Colorado","West",39.3297,-104.9296,336041,0.451871553849542,1,123697,5.8
"260","peak 1","08037",16.2857142857143,"Eagle","Colorado","West",39.6278,-106.6954,54681,0.637886067261496,5,89268,9.5
"261","peak 1","08039",1,"Elbert","Colorado","West",39.2866,-104.136,25717,0.236527419269873,1,101733,4.7
"262","peak 1","08041",69.4285714285714,"El Paso","Colorado","West",38.8321,-104.5255,698974,0.427455265818308,2,72675,7.3
"263","peak 1","08043",2,"Fremont","Colorado","West",38.473,-105.4397,47321,0.28833587666784,4,52239,7.7
"264","peak 1","08045",13.7142857142857,"Garfield","Colorado","West",39.5993,-107.904,59055,0.49919104323065,5,73788,6.8
"265","peak 1","08047",0.142857142857143,"Gilpin","Colorado","West",39.8575,-105.5226,6018,0.531055900621118,1,74806,11.3
"266","peak 1","08049",0.428571428571429,"Grand","Colorado","West",40.1026,-106.1183,15303,0.477203647416413,7,71029,8.4
"267","peak 1","08051",2.42857142857143,"Gunnison","Colorado","West",38.6668,-107.0316,16802,0.637354781054513,7,60408,6.6
"268","peak 1","08053",0,"Hinsdale","Colorado","West",37.8213,-107.3003,857,0.403481012658228,9,61391,4.2
"269","peak 1","08055",0.142857142857143,"Huerfano","Colorado","West",37.6847,-104.9606,6679,0.471175669541534,6,39955,9.4
"270","peak 1","08057",0,"Jackson","Colorado","West",40.6664,-106.3428,1261,0.199771689497717,9,53577,4.3
"271","peak 1","08059",49.7142857142857,"Jefferson","Colorado","West",39.5864,-105.2505,574798,0.57875168606916,1,89696,7.1
"272","peak 1","08063",0.857142857142857,"Kit Carson","Colorado","West",39.3055,-102.603,7447,0.171015241539654,7,42951,2.8
"273","peak 1","08065",0.142857142857143,"Lake","Colorado","West",39.2025,-106.3448,7751,0.581418833627872,6,56850,8.2
"274","peak 1","08067",3.14285714285714,"La Plata","Colorado","West",37.2866,-107.8433,55617,0.576106765357333,4,77829,6.8
"275","peak 1","08069",20.4285714285714,"Larimer","Colorado","West",40.6664,-105.4611,344786,0.562187413634783,2,75332,6.3
"276","peak 1","08071",0.285714285714286,"Las Animas","Colorado","West",37.3158,-104.0386,14266,0.439266423816103,7,43452,7.4
"277","peak 1","08073",0.142857142857143,"Lincoln","Colorado","West",38.9881,-103.514,5585,0.17729158807997,8,43077,4.5
"278","peak 1","08075",0.285714285714286,"Logan","Colorado","West",40.7247,-103.1101,22380,0.210596278009875,7,58429,4.7
"279","peak 1","08077",6,"Mesa","Colorado","West",39.0183,-108.4664,151218,0.347994968109289,3,60249,7.5
"280","peak 1","08079",0.142857142857143,"Mineral","Colorado","West",37.6689,-106.9241,824,0.419312169312169,9,63015,5.8
"281","peak 1","08081",0.714285714285714,"Moffat","Colorado","West",40.6184,-108.2074,13127,0.171221178479932,7,63232,6
"282","peak 1","08083",1.42857142857143,"Montezuma","Colorado","West",37.3386,-108.5966,26031,0.376516129032258,6,52641,7.1
"283","peak 1","08085",3.85714285714286,"Montrose","Colorado","West",38.4022,-108.2693,41686,0.308442340101115,4,50707,6.6
"284","peak 1","08087",1,"Morgan","Colorado","West",40.2626,-103.8097,28517,0.282013969732247,6,57535,5.4
"285","peak 1","08089",2,"Otero","Colorado","West",37.9026,-103.7165,18282,0.376461988304094,6,43723,6.2
"286","peak 1","08091",0,"Ouray","Colorado","West",38.1555,-107.7693,4796,0.588308457711443,9,72836,8.1
"287","peak 1","08093",0.714285714285714,"Park","Colorado","West",39.1193,-105.7171,17867,0.398942229454841,1,77221,5.7
"288","peak 1","08095",0.571428571428571,"Phillips","Colorado","West",40.594,-102.3576,4290,0.195573440643863,9,53432,2.7
"289","peak 1","08097",2,"Pitkin","Colorado","West",39.2171,-106.9166,17926,0.751777201639207,7,92820,10.5
"290","peak 1","08099",0.142857142857143,"Prowers","Colorado","West",37.9552,-102.3934,12022,0.262183060600611,7,47051,4.4
"291","peak 1","08101",8.14285714285714,"Pueblo","Colorado","West",38.1735,-104.5128,165982,0.495724753394716,3,51075,8.2
"292","peak 1","08103",0,"Rio Blanco","Colorado","West",39.9798,-108.2171,6384,0.151991330262801,9,65960,5.4
"293","peak 1","08105",0.428571428571429,"Rio Grande","Colorado","West",37.5825,-106.3832,11305,0.395717684377478,7,48496,7.1
"294","peak 1","08107",1,"Routt","Colorado","West",40.4851,-106.9913,25072,0.62704432329936,7,87691,7.9
"295","peak 1","08109",0.142857142857143,"Saguache","Colorado","West",38.0805,-106.2815,6592,0.55591619946887,9,37004,7
"296","peak 1","08111",0,"San Juan","Colorado","West",37.764,-107.6762,589,0.607460035523979,9,50524,6.7
"297","peak 1","08113",0.857142857142857,"San Miguel","Colorado","West",38.0038,-108.4057,8049,0.762385855838352,9,77209,10.9
"298","peak 1","08115",0.142857142857143,"Sedgwick","Colorado","West",40.8759,-102.3518,2322,0.208160442600277,9,42808,3.4
"299","peak 1","08117",1.42857142857143,"Summit","Colorado","West",39.6342,-106.1164,30649,0.683532658693652,5,86570,9.8
"300","peak 1","08119",2.28571428571429,"Teller","Colorado","West",38.8822,-105.1618,24524,0.311588641596316,2,70599,7.5
"301","peak 1","08121",0,"Washington","Colorado","West",39.971,-103.2012,4868,0.122672872340426,9,53263,3.1
"302","peak 1","08123",21.5714285714286,"Weld","Colorado","West",40.5548,-104.3925,305345,0.395644674428633,2,78160,7
"303","peak 1","08125",0.142857142857143,"Yuma","Colorado","West",40.0029,-102.4242,10003,0.157598875727766,7,52841,2.8
"304","peak 1","09001",44.1428571428571,"Fairfield","Connecticut","Northeast",41.2708,-73.3894,943926,0.628987927863168,2,96966,7.9
"305","peak 1","09003",36.8571428571429,"Hartford","Connecticut","Northeast",41.8064,-72.7329,893561,0.630637206900849,1,75336,8.1
"306","peak 1","09005",5.14285714285714,"Litchfield","Connecticut","Northeast",41.7925,-73.2453,182002,0.466450941010191,4,81015,6.9
"307","peak 1","09007",0.857142857142857,"Middlesex","Connecticut","Northeast",41.4632,-72.5351,163053,0.573047186073002,1,81721,6.5
"308","peak 1","09009",13.7142857142857,"New Haven","Connecticut","Northeast",41.4105,-72.9321,857513,0.580479927269247,2,69687,8
"309","peak 1","09011",1.71428571428571,"New London","Connecticut","Northeast",41.4866,-72.1015,267390,0.569174235695252,2,75226,9.6
"310","peak 1","09013",3.85714285714286,"Tolland","Connecticut","Northeast",41.855,-72.3365,151063,0.546346187271869,1,90181,6.2
"311","peak 1","09015",0.857142857142857,"Windham","Connecticut","Northeast",41.83,-71.9874,116566,0.467806647160853,2,63309,7.8
"312","peak 1","10001",14.8571428571429,"Kent","Delaware","South",39.0862,-75.5684,176699,0.511944843435794,3,58804,8.6
"313","peak 1","10003",50.7142857142857,"New Castle","Delaware","South",39.5768,-75.6527,556165,0.678065451460716,1,76076,7.7
"314","peak 1","10005",25,"Sussex","Delaware","South",38.6606,-75.39,224384,0.438199641288886,2,64839,7.5
"315","peak 1","11001",63,"District of Columbia","District of Columbia","South",38.9047,-77.0163,692683,0.921496939214069,1,90395,8
"316","peak 1","12001",65.8571428571429,"Alachua","Florida","South",29.6747,-82.3577,265443,0.629042663599899,2,49880,5.4
"317","peak 1","12003",8.85714285714286,"Baker","Florida","South",30.3311,-82.2846,28211,0.14488939469379,1,60454,4.9
"318","peak 1","12005",123.857142857143,"Bay","Florida","South",30.2652,-85.6203,182161,0.275348297213622,3,58376,6.1
"319","peak 1","12007",5.42857142857143,"Bradford","Florida","South",29.9499,-82.1688,27317,0.231807511737089,6,47509,5.9
"320","peak 1","12009",94.7142857142857,"Brevard","Florida","South",28.2937,-80.7323,585507,0.41176226009247,2,57582,6.6
"321","peak 1","12011",1196.28571428571,"Broward","Florida","South",26.1523,-80.4871,1926205,0.646100126139221,1,61429,8.8
"322","peak 1","12013",3.57142857142857,"Calhoun","Florida","South",30.406,-85.1972,14362,0.185258964143426,6,41399,5.2
"323","peak 1","12015",30.4285714285714,"Charlotte","Florida","South",26.9055,-81.9123,181067,0.363357400722022,3,54756,7.3
"324","peak 1","12017",32.5714285714286,"Citrus","Florida","South",28.8489,-82.4794,145169,0.290661745772895,3,49762,8.4
"325","peak 1","12019",57.2857142857143,"Clay","Florida","South",29.9831,-81.8579,211405,0.308002089948153,1,75776,5.4
"326","peak 1","12021",123,"Collier","Florida","South",26.1107,-81.3476,371453,0.37350470122896,2,76415,6.9
"327","peak 1","12023",107.142857142857,"Columbia","Florida","South",30.2242,-82.6215,69968,0.269777858483143,4,47087,5.8
"328","peak 1","12027",12.2857142857143,"DeSoto","Florida","South",27.1864,-81.8095,36903,0.336440477130895,6,41673,5.2
"329","peak 1","12029",5.71428571428571,"Dixie","Florida","South",29.6082,-83.1588,16589,0.167136035263867,6,39793,5.5
"330","peak 1","12031",358.285714285714,"Duval","Florida","South",30.3316,-81.6708,936186,0.512471084777404,1,58339,6.7
"331","peak 1","12033",159.714285714286,"Escambia","Florida","South",30.6689,-87.3628,313491,0.416318409128261,2,52822,6.7
"332","peak 1","12035",20.2857142857143,"Flagler","Florida","South",29.4614,-81.3136,109801,0.39267388030565,2,62831,7.6
"333","peak 1","12037",1.57142857142857,"Franklin","Florida","South",29.8765,-84.814,11811,0.309534238574974,6,47504,5.4
"334","peak 1","12039",47.7142857142857,"Gadsden","Florida","South",30.5795,-84.6136,45945,0.679782846561737,2,42975,6.8
"335","peak 1","12041",11.1428571428571,"Gilchrist","Florida","South",29.7258,-82.8004,17953,0.175529168817759,2,46171,4.9
"336","peak 1","12043",14.1428571428571,"Glades","Florida","South",26.9564,-81.1891,13516,0.266705180050067,6,45412,5.6
"337","peak 1","12045",9.14285714285714,"Gulf","Florida","South",29.9555,-85.2266,15576,0.243170403038099,3,53228,5.9
"338","peak 1","12047",5.85714285714286,"Hamilton","Florida","South",30.4964,-82.9479,14326,0.336706689536878,6,39241,7.6
"339","peak 1","12049",10.1428571428571,"Hardee","Florida","South",27.4927,-81.81,27131,0.270830878020035,6,41430,6.5
"340","peak 1","12051",17.5714285714286,"Hendry","Florida","South",26.5535,-81.1659,40732,0.380911901081917,4,45107,8.1
"341","peak 1","12053",35.2857142857143,"Hernando","Florida","South",28.5536,-82.425,186313,0.344457501698463,1,50705,8.1
"342","peak 1","12055",37.2857142857143,"Highlands","Florida","South",27.3433,-81.341,103437,0.324669350201265,3,45723,7.7
"343","peak 1","12057",420.285714285714,"Hillsborough","Florida","South",27.9291,-82.3092,1422278,0.528558568553625,1,61133,7.1
"344","peak 1","12059",8.85714285714286,"Holmes","Florida","South",30.8679,-85.814,19432,0.101896779885311,6,38874,5.5
"345","peak 1","12061",46.4285714285714,"Indian River","Florida","South",27.6943,-80.6062,153989,0.388207295556194,3,61173,7.4
"346","peak 1","12063",58.4285714285714,"Jackson","Florida","South",30.7954,-85.2155,47945,0.301797582407779,6,40543,5.4
"347","peak 1","12065",8.71428571428571,"Jefferson","Florida","South",30.4375,-83.8953,14161,0.461128860489883,2,47192,5.6
"348","peak 1","12067",1.42857142857143,"Lafayette","Florida","South",29.9855,-83.1811,8637,0.139420448332422,9,45480,4.2
"349","peak 1","12069",99.8571428571429,"Lake","Florida","South",28.7615,-81.7113,345867,0.395170220619552,1,57660,8.9
"350","peak 1","12071",215.571428571429,"Lee","Florida","South",26.5778,-81.8337,737468,0.40034374293918,2,62364,7.3
"351","peak 1","12073",88.5714285714286,"Leon","Florida","South",30.458,-84.2779,289770,0.63535036733792,2,55081,5.8
"352","peak 1","12075",12.4285714285714,"Levy","Florida","South",29.3184,-82.7436,40403,0.268092460574638,6,41405,6
"353","peak 1","12077",3.42857142857143,"Liberty","Florida","South",30.2414,-84.8829,8345,0.194889076102218,8,44236,4.8
"354","peak 1","12079",10.7142857142857,"Madison","Florida","South",30.4441,-83.4701,18460,0.399466950959488,6,37919,6
"355","peak 1","12081",160.142857142857,"Manatee","Florida","South",27.4719,-82.3153,384213,0.415591957890467,2,64151,6.8
"356","peak 1","12083",125.142857142857,"Marion","Florida","South",29.2102,-82.0567,353526,0.366275883665401,2,49079,7
"357","peak 1","12085",38.2857142857143,"Martin","Florida","South",27.0775,-80.4315,159065,0.373690821060308,2,70806,6.1
"358","peak 1","12086",2531.42857142857,"Miami-Dade","Florida","South",25.615,-80.5623,2699428,0.534107412068989,1,54991,8
"359","peak 1","12087",33.1428571428571,"Monroe","Florida","South",25.3156,-81.1106,75798,0.455578921068521,4,67528,7.9
"360","peak 1","12089",22.4285714285714,"Nassau","Florida","South",30.6106,-81.8016,83098,0.26464436925065,1,72818,5.7
"361","peak 1","12091",56.4285714285714,"Okaloosa","Florida","South",30.6913,-86.5917,203794,0.294295068443711,3,63520,5.5
"362","peak 1","12093",21.4285714285714,"Okeechobee","Florida","South",27.3864,-80.8886,41144,0.275166102544816,4,45225,5.4
"363","peak 1","12095",485.142857142857,"Orange","Florida","South",28.5144,-81.3235,1349746,0.610151636615833,1,63133,10.6
"364","peak 1","12097",192.285714285714,"Osceola","Florida","South",28.0627,-81.1495,351955,0.56424992460971,1,52270,13.5
"365","peak 1","12099",557,"Palm Beach","Florida","South",26.6476,-80.4655,1465027,0.560780590771873,1,66621,7.6
"366","peak 1","12101",107.571428571429,"Pasco","Florida","South",28.3091,-82.3932,524602,0.394320627876941,1,55745,7.2
"367","peak 1","12103",206,"Pinellas","Florida","South",27.9196,-82.7256,964666,0.495698703804615,1,56708,7
"368","peak 1","12105",220.857142857143,"Polk","Florida","South",27.9489,-81.6976,686218,0.422567995898105,2,51817,9
"369","peak 1","12107",26.4285714285714,"Putnam","Florida","South",29.6087,-81.7443,73252,0.289417974871471,4,41986,7.9
"370","peak 1","12109",55.4285714285714,"St. Johns","Florida","South",29.9016,-81.4407,244674,0.361506494094733,1,90839,5.3
"371","peak 1","12111",99.2857142857143,"St. Lucie","Florida","South",27.3773,-80.472,312947,0.488688439846895,2,57292,7.8
"372","peak 1","12113",75.8571428571429,"Santa Rosa","Florida","South",30.7004,-87.022,174755,0.258229836899596,2,66139,5.2
"373","peak 1","12115",109.285714285714,"Sarasota","Florida","South",27.1845,-82.3315,419496,0.443906495426407,2,66258,6.8
"374","peak 1","12117",89,"Seminole","Florida","South",28.717,-81.2363,461402,0.508130283917719,1,69954,7.2
"375","peak 1","12119",21.2857142857143,"Sumter","Florida","South",28.7048,-82.081,125044,0.317251446180462,3,63464,7.9
"376","peak 1","12121",16.8571428571429,"Suwannee","Florida","South",30.1956,-82.9915,44046,0.212993303889443,6,49453,5.6
"377","peak 1","12123",7.42857142857143,"Taylor","Florida","South",30.047,-83.6035,21870,0.227016885553471,6,42987,6.2
"378","peak 1","12125",10,"Union","Florida","South",30.0439,-82.3714,15303,0.168614891913531,6,50893,4.7
"379","peak 1","12127",134.714285714286,"Volusia","Florida","South",29.0584,-81.1819,536487,0.424718399422324,2,53554,7.6
"380","peak 1","12129",30,"Wakulla","Florida","South",30.1673,-84.4007,32321,0.290752010432515,2,58640,4.5
"381","peak 1","12131",33.5714285714286,"Walton","Florida","South",30.6436,-86.1697,68262,0.236507972821487,3,62600,5.9
"382","peak 1","12133",17.5714285714286,"Washington","Florida","South",30.6106,-85.6653,24764,0.190395067737487,6,42518,5.8
"383","peak 1","13001",7.71428571428571,"Appling","Georgia","South",31.7492,-82.2889,18440,0.212634088200238,7,43821,4.7
"384","peak 1","13003",5.85714285714286,"Atkinson","Georgia","South",31.2971,-82.8801,8239,0.26148969889065,9,38581,3.9
"385","peak 1","13005",5.28571428571429,"Bacon","Georgia","South",31.5537,-82.4527,11201,0.133919005785301,7,41807,4.9
"386","peak 1","13007",1,"Baker","Georgia","South",31.3262,-84.4447,3132,0.419292604501608,3,39515,6
"387","peak 1","13009",13.5714285714286,"Baldwin","Georgia","South",33.0692,-83.2496,45111,0.500794477014958,4,44429,6.9
"388","peak 1","13011",2.42857142857143,"Banks","Georgia","South",34.3541,-83.4974,18708,0.105897057152596,8,53481,4.3
"389","peak 1","13013",21,"Barrow","Georgia","South",33.9932,-83.7127,78991,0.275652013396271,1,68924,5.1
"390","peak 1","13015",30.2857142857143,"Bartow","Georgia","South",34.2377,-84.8403,104919,0.239596544071021,1,60254,6.2
"391","peak 1","13017",5.14285714285714,"Ben Hill","Georgia","South",31.7598,-83.2205,17033,0.364564290067032,7,35931,6.9
"392","peak 1","13019",3.85714285714286,"Berrien","Georgia","South",31.276,-83.2296,19152,0.163889965129795,6,42058,5.8
"393","peak 1","13021",63,"Bibb","Georgia","South",32.8065,-83.6974,153200,0.613852985264587,3,43066,7.5
"394","peak 1","13023",2,"Bleckley","Georgia","South",32.4344,-83.3279,12807,0.229852838121934,6,48115,6.5
"395","peak 1","13025",3.71428571428571,"Brantley","Georgia","South",31.1969,-81.9819,18756,0.0903342366757001,3,44680,5.4
"396","peak 1","13027",5,"Brooks","Georgia","South",30.842,-83.5802,15590,0.393043233347416,3,39554,5.2
"397","peak 1","13029",13.5714285714286,"Bryan","Georgia","South",32.0145,-81.4436,37063,0.315819076634638,2,79296,5.3
"398","peak 1","13031",17.4285714285714,"Bulloch","Georgia","South",32.3968,-81.7432,76120,0.373811897640412,4,48788,6.5
"399","peak 1","13033",11,"Burke","Georgia","South",33.0611,-82.0009,22520,0.48750351024993,2,42632,7.2
"400","peak 1","13035",4.28571428571429,"Butts","Georgia","South",33.2879,-83.9572,24090,0.278141194460963,1,47410,6.2
"401","peak 1","13037",0.857142857142857,"Calhoun","Georgia","South",31.5292,-84.6245,6365,0.574613284804368,8,34960,5.1
"402","peak 1","13039",14.5714285714286,"Camden","Georgia","South",30.9306,-81.67,53231,0.336359030651017,4,58552,4.7
"403","peak 1","13043",5.42857142857143,"Candler","Georgia","South",32.4034,-82.0737,10812,0.286391333784699,7,41665,4.4
"404","peak 1","13045",24.1428571428571,"Carroll","Georgia","South",33.5828,-85.0798,117183,0.298061389337641,1,59193,6.4
"405","peak 1","13047",8.14285714285714,"Catoosa","Georgia","South",34.9036,-85.1382,66700,0.21268370509005,2,60753,4.3
"406","peak 1","13049",9.14285714285714,"Charlton","Georgia","South",30.7817,-82.1379,13040,0.241900175131349,6,42891,3.8
"407","peak 1","13051",111.142857142857,"Chatham","Georgia","South",32.0042,-81.1328,288496,0.586524046533941,2,57122,7.6
"408","peak 1","13053",1,"Chattahoochee","Georgia","South",32.347,-84.787,10560,0.421618204804045,2,46106,6.2
"409","peak 1","13055",7.28571428571429,"Chattooga","Georgia","South",34.475,-85.3453,24812,0.184477611940299,6,41561,8.4
"410","peak 1","13057",46.8571428571429,"Cherokee","Georgia","South",34.2439,-84.4762,247515,0.295404481579947,1,88635,4.9
"411","peak 1","13059",27.7142857142857,"Clarke","Georgia","South",33.9512,-83.3673,126176,0.702196860514938,3,41036,6.4
"412","peak 1","13061",0.571428571428571,"Clay","Georgia","South",31.6263,-84.9801,2951,0.551219512195122,9,24732,12.4
"413","peak 1","13063",78.1428571428571,"Clayton","Georgia","South",33.5419,-84.3576,283538,0.849870916050921,1,50737,10.3
"414","peak 1","13065",3.85714285714286,"Clinch","Georgia","South",30.915,-82.7063,6686,0.260048933939182,6,42928,4
"415","peak 1","13067",230,"Cobb","Georgia","South",33.9415,-84.5767,751218,0.56345243416775,1,79622,5.9
"416","peak 1","13069",20.4285714285714,"Coffee","Georgia","South",31.5493,-82.8492,43021,0.29650322071776,7,41675,5.8
"417","peak 1","13071",8.42857142857143,"Colquitt","Georgia","South",31.1884,-83.7688,45486,0.26047494715902,6,41899,4.5
"418","peak 1","13073",36.1428571428571,"Columbia","Georgia","South",33.5441,-82.264,150705,0.36279242941359,2,88285,4.2
"419","peak 1","13075",6.28571428571429,"Cook","Georgia","South",31.154,-83.4305,17177,0.292679459843639,6,40670,4.7
"420","peak 1","13077",23.5714285714286,"Coweta","Georgia","South",33.3535,-84.7634,143260,0.315238479667704,1,79232,6.2
"421","peak 1","13079",2,"Crawford","Georgia","South",32.7145,-83.9863,12325,0.264667322189446,3,50411,5
"422","peak 1","13081",1.42857142857143,"Crisp","Georgia","South",31.9229,-83.7681,22713,0.37121872276858,6,40482,7.9
"423","peak 1","13083",1.14285714285714,"Dade","Georgia","South",34.8546,-85.5045,16197,0.169626042507398,2,45986,4.1
"424","peak 1","13085",5,"Dawson","Georgia","South",34.4443,-84.1706,24536,0.154592376096014,1,69155,4.7
"425","peak 1","13087",17.4285714285714,"Decatur","Georgia","South",30.8783,-84.579,26682,0.411354838709677,6,40473,4.8
"426","peak 1","13089",194.142857142857,"DeKalb","Georgia","South",33.7715,-84.2264,749323,0.831194402636846,1,63606,8
"427","peak 1","13091",4.71428571428571,"Dodge","Georgia","South",32.1722,-83.1684,20829,0.269111634246066,6,41118,6
"428","peak 1","13093",1,"Dooly","Georgia","South",32.1572,-83.7988,13736,0.465529841656516,6,37109,7.7
"429","peak 1","13095",20.2857142857143,"Dougherty","Georgia","South",31.5335,-84.2164,89703,0.696233740470995,3,36894,8.6
"430","peak 1","13097",43.8571428571429,"Douglas","Georgia","South",33.7018,-84.768,143316,0.619540994993199,1,62915,7.4
"431","peak 1","13099",2.28571428571429,"Early","Georgia","South",31.3228,-84.9037,10312,0.472243639167309,6,40011,5.8
"432","peak 1","13101",1.14285714285714,"Echols","Georgia","South",30.7101,-82.894,3981,0.11589174184594,3,40408,3.9
"433","peak 1","13103",16.2857142857143,"Effingham","Georgia","South",32.3673,-81.3413,60477,0.244464856989009,2,71628,5
"434","peak 1","13105",6.85714285714286,"Elbert","Georgia","South",34.1168,-82.8401,19166,0.313924326681932,6,40962,6.9
"435","peak 1","13107",9.42857142857143,"Emanuel","Georgia","South",32.5897,-82.3017,22533,0.303629668595476,7,38529,7.1
"436","peak 1","13109",9.28571428571429,"Evans","Georgia","South",32.1568,-81.8869,10687,0.311749470214269,6,41425,5.1
"437","peak 1","13111",6,"Fannin","Georgia","South",34.8641,-84.3198,25395,0.173075627988417,8,47980,4.7
"438","peak 1","13113",19.4285714285714,"Fayette","Georgia","South",33.414,-84.4942,112303,0.459232713837264,1,94563,5.4
"439","peak 1","13115",25.7142857142857,"Floyd","Georgia","South",34.2632,-85.2143,97369,0.288261048353934,3,50520,6.3
"440","peak 1","13117",33.4285714285714,"Forsyth","Georgia","South",34.2255,-84.125,228383,0.326406879538477,1,113332,4.6
"441","peak 1","13119",4,"Franklin","Georgia","South",34.3754,-83.2292,22766,0.147979563399907,8,47691,5.9
"442","peak 1","13121",352,"Fulton","Georgia","South",33.7903,-84.467,1036200,0.725901572991662,1,79235,8
"443","peak 1","13123",9.42857142857143,"Gilmer","Georgia","South",34.6912,-84.4556,30414,0.177428139183056,6,57007,4.7
"444","peak 1","13125",0.285714285714286,"Glascock","Georgia","South",33.2293,-82.6107,2996,0.0990415335463259,9,49350,4.1
"445","peak 1","13127",34.1428571428571,"Glynn","Georgia","South",31.2309,-81.5407,84470,0.37825092883681,3,58017,6.8
"446","peak 1","13129",20.2857142857143,"Gordon","Georgia","South",34.5032,-84.8759,57202,0.182415844879957,4,53373,5.5
"447","peak 1","13131",9.71428571428571,"Grady","Georgia","South",30.8747,-84.2344,24828,0.338003175492668,6,42603,4.4
"448","peak 1","13133",5.42857142857143,"Greene","Georgia","South",33.5788,-83.1667,17349,0.363482746353611,6,60973,5.9
"449","peak 1","13135",243,"Gwinnett","Georgia","South",33.9617,-84.0236,915046,0.584494098153967,1,72225,6.3
"450","peak 1","13137",11.7142857142857,"Habersham","Georgia","South",34.631,-83.5311,44626,0.174342910283393,6,51296,5.4
"451","peak 1","13139",62.8571428571429,"Hall","Georgia","South",34.3169,-83.8197,198667,0.276494692777538,3,66698,4.7
"452","peak 1","13141",2.14285714285714,"Hancock","Georgia","South",33.2704,-83.0007,8515,0.716590416566338,7,31715,8.8
"453","peak 1","13143",4.85714285714286,"Haralson","Georgia","South",33.7942,-85.211,29227,0.125719500210585,1,49020,5.9
"454","peak 1","13145",6.42857142857143,"Harris","Georgia","South",32.736,-84.9089,34105,0.272972837777,2,74052,4.6
"455","peak 1","13147",6,"Hart","Georgia","South",34.3508,-82.9642,25773,0.248035826524199,6,50647,5.4
"456","peak 1","13149",2.42857142857143,"Heard","Georgia","South",33.297,-85.1283,11736,0.152762328513163,1,48984,6.5
"457","peak 1","13151",54,"Henry","Georgia","South",33.453,-84.1542,225356,0.597107270036911,1,72927,7.4
"458","peak 1","13153",33.8571428571429,"Houston","Georgia","South",32.459,-83.6662,153507,0.430783826398354,3,65641,5.2
"459","peak 1","13155",2.42857142857143,"Irwin","Georgia","South",31.6022,-83.2764,9320,0.241842610364683,7,42317,5.5
"460","peak 1","13157",21.1428571428571,"Jackson","Georgia","South",34.1339,-83.5664,67885,0.202840079628401,4,66645,4.4
"461","peak 1","13159",1,"Jasper","Georgia","South",33.3165,-83.688,13916,0.230376766091052,1,59207,4.9
"462","peak 1","13161",11.4285714285714,"Jeff Davis","Georgia","South",31.8056,-82.6368,15036,0.178132039507884,7,40603,5.1
"463","peak 1","13163",11,"Jefferson","Georgia","South",33.0549,-82.4182,15618,0.531221364052887,6,35379,6.7
"464","peak 1","13165",2.42857142857143,"Jenkins","Georgia","South",32.7924,-81.9635,8793,0.366425470332851,6,32808,6.3
"465","peak 1","13167",7.57142857142857,"Johnson","Georgia","South",32.7015,-82.6601,9691,0.298048780487805,7,37771,4.9
"466","peak 1","13169",5,"Jones","Georgia","South",33.0251,-83.5605,28579,0.326905048881746,3,56819,4.6
"467","peak 1","13171",4.28571428571429,"Lamar","Georgia","South",33.0765,-84.1395,18672,0.289662797125484,1,57402,6.3
"468","peak 1","13173",2.42857142857143,"Lanier","Georgia","South",31.0379,-83.0628,10380,0.284955257270693,3,42667,5.2
"469","peak 1","13175",14.8571428571429,"Laurens","Georgia","South",32.4637,-82.9222,47405,0.355197747569399,5,42018,6.7
"470","peak 1","13177",4.42857142857143,"Lee","Georgia","South",31.7796,-84.1412,29502,0.272705516333613,3,72425,4.6
"471","peak 1","13179",14.1428571428571,"Liberty","Georgia","South",31.8281,-81.4947,61349,0.612508179863513,3,51410,6.2
"472","peak 1","13181",2.14285714285714,"Lincoln","Georgia","South",33.7936,-82.4512,7856,0.308554190907132,2,45299,5.4
"473","peak 1","13183",1.71428571428571,"Long","Georgia","South",31.7526,-81.7457,18692,0.35973130634612,3,52051,4.4
"474","peak 1","13185",56.7142857142857,"Lowndes","Georgia","South",30.8338,-83.2677,115364,0.433955344623018,3,46450,6
"475","peak 1","13187",5.14285714285714,"Lumpkin","Georgia","South",34.5722,-84.0027,32402,0.201274869615608,6,57078,4.8
"476","peak 1","13189",4.71428571428571,"McDuffie","Georgia","South",33.4829,-82.4814,21455,0.398660927785748,2,44473,7.8
"477","peak 1","13191",3,"McIntosh","Georgia","South",31.4967,-81.4085,14174,0.390083632019116,3,46682,5.7
"478","peak 1","13193",1.42857142857143,"Macon","Georgia","South",32.3584,-84.0425,13305,0.612910143684323,6,34634,6.7
"479","peak 1","13195",6.71428571428571,"Madison","Georgia","South",34.1278,-83.209,29218,0.22835910825467,3,52326,5.2
"480","peak 1","13197",2,"Marion","Georgia","South",32.3534,-84.5247,8432,0.361931034482759,2,41190,5.1
"481","peak 1","13199",5.57142857142857,"Meriwether","Georgia","South",33.0407,-84.6883,21106,0.394134412062149,1,43571,8.6
"482","peak 1","13201",5.14285714285714,"Miller","Georgia","South",31.164,-84.7308,5787,0.26393789696542,8,41769,4
"483","peak 1","13205",5,"Mitchell","Georgia","South",31.2253,-84.1943,22244,0.44554786877929,6,37383,6.5
"484","peak 1","13207",8.71428571428571,"Monroe","Georgia","South",33.0139,-83.9187,27171,0.281270044900577,3,70488,5.1
"485","peak 1","13209",2.71428571428571,"Montgomery","Georgia","South",32.1734,-82.5348,9058,0.247038064028233,9,43657,5.4
"486","peak 1","13211",6.14285714285714,"Morgan","Georgia","South",33.5909,-83.4923,18507,0.286434307192893,1,67089,5.4
"487","peak 1","13213",10.5714285714286,"Murray","Georgia","South",34.7884,-84.7481,39724,0.149522386119956,3,50061,7.6
"488","peak 1","13215",57.8571428571429,"Muscogee","Georgia","South",32.51,-84.8771,195739,0.614129219763023,2,47035,7.8
"489","peak 1","13217",23.7142857142857,"Newton","Georgia","South",33.555,-83.8502,108079,0.549267986871704,1,58222,7.1
"490","peak 1","13219",6.57142857142857,"Oconee","Georgia","South",33.835,-83.4371,38132,0.324300699300699,3,100878,3.8
"491","peak 1","13221",3.14285714285714,"Oglethorpe","Georgia","South",33.8807,-83.0807,14931,0.299889339727038,3,54346,4.8
"492","peak 1","13223",23.5714285714286,"Paulding","Georgia","South",33.9205,-84.8673,159825,0.34783067047744,1,76580,5.4
"493","peak 1","13225",7,"Peach","Georgia","South",32.5688,-83.8269,27145,0.471759738707879,3,49815,6.2
"494","peak 1","13227",7.42857142857143,"Pickens","Georgia","South",34.4643,-84.4656,31387,0.164501660161939,1,66183,4.8
"495","peak 1","13229",5.57142857142857,"Pierce","Georgia","South",31.3588,-82.2128,19250,0.121587266497181,6,46701,4.5
"496","peak 1","13231",3.28571428571429,"Pike","Georgia","South",33.0923,-84.3892,18327,0.140391791044776,1,74905,5
"497","peak 1","13233",14.8571428571429,"Polk","Georgia","South",34.0018,-85.1881,41908,0.210220740400092,4,47896,6
"498","peak 1","13235",0.714285714285714,"Pulaski","Georgia","South",32.2323,-83.476,11216,0.301396716491056,3,42274,4.5
"499","peak 1","13237",4.71428571428571,"Putnam","Georgia","South",33.3218,-83.3728,21691,0.290847743568115,6,62282,6.6
"500","peak 1","13239",0.142857142857143,"Quitman","Georgia","South",31.8673,-85.0188,2289,0.449367088607595,9,35522,6.5
"501","peak 1","13241",5.14285714285714,"Rabun","Georgia","South",34.8817,-83.4021,16645,0.207357859531773,7,46639,5.3
"502","peak 1","13243",2,"Randolph","Georgia","South",31.7626,-84.7542,6973,0.54376830458835,6,33505,5.9
"503","peak 1","13245",72.8571428571429,"Richmond","Georgia","South",33.3596,-82.0735,201852,0.67945844682734,2,44810,7.6
"504","peak 1","13247",12.4285714285714,"Rockdale","Georgia","South",33.6542,-84.0266,89717,0.699111479152212,1,60281,7.6
"505","peak 1","13249",1.85714285714286,"Schley","Georgia","South",32.2617,-84.3148,5221,0.203076923076923,8,51129,4.3
"506","peak 1","13251",2.14285714285714,"Screven","Georgia","South",32.7506,-81.6119,13989,0.401539157990041,6,42331,8.2
"507","peak 1","13253",3.14285714285714,"Seminole","Georgia","South",30.9388,-84.8688,8321,0.323045267489712,6,38618,5
"508","peak 1","13255",13,"Spalding","Georgia","South",33.2609,-84.2841,65306,0.391513025057098,1,49237,7.6
"509","peak 1","13257",10.4285714285714,"Stephens","Georgia","South",34.5539,-83.2935,25750,0.200757257046698,7,45416,6.4
"510","peak 1","13259",0.571428571428571,"Stewart","Georgia","South",32.0785,-84.8352,6293,0.593969849246231,8,34566,5.7
"511","peak 1","13261",3.57142857142857,"Sumter","Georgia","South",32.0399,-84.197,30064,0.519756338491933,6,40250,7.4
"512","peak 1","13263",1.85714285714286,"Talbot","Georgia","South",32.6995,-84.533,6321,0.60022714366837,8,41045,6.9
"513","peak 1","13265",0.714285714285714,"Taliaferro","Georgia","South",33.5661,-82.8788,1611,0.604525862068966,8,37046,7.2
"514","peak 1","13267",8.42857142857143,"Tattnall","Georgia","South",32.0458,-82.0581,25382,0.251924251679902,6,41457,4.3
"515","peak 1","13269",1,"Taylor","Georgia","South",32.5555,-84.2505,8116,0.361270171785528,8,28234,6.7
"516","peak 1","13271",2.57142857142857,"Telfair","Georgia","South",31.9298,-82.939,16035,0.343331795108445,7,36264,9.9
"517","peak 1","13273",2.14285714285714,"Terrell","Georgia","South",31.777,-84.437,8737,0.53804347826087,3,37122,7.5
"518","peak 1","13275",21.5714285714286,"Thomas","Georgia","South",30.8638,-83.9193,44630,0.398134601316752,4,47978,6.2
"519","peak 1","13277",9.28571428571429,"Tift","Georgia","South",31.4574,-83.5266,40541,0.326678542908041,5,47764,5.1
"520","peak 1","13279",13.4285714285714,"Toombs","Georgia","South",32.1216,-82.3312,26972,0.269195528678761,7,41442,6.6
"521","peak 1","13281",2.28571428571429,"Towns","Georgia","South",34.9167,-83.7373,11617,0.194259932322346,9,49023,6.7
"522","peak 1","13283",2.57142857142857,"Treutlen","Georgia","South",32.4039,-82.5673,6795,0.30939226519337,7,37478,6
"523","peak 1","13285",30.1428571428571,"Troup","Georgia","South",33.0335,-85.0284,69919,0.385296369021866,4,47296,7.3
"524","peak 1","13287",1.42857142857143,"Turner","Georgia","South",31.7164,-83.6241,7943,0.371669744130836,6,35400,7.2
"525","peak 1","13289",1.57142857142857,"Twiggs","Georgia","South",32.6672,-83.4271,8229,0.45994599459946,3,44079,7.4
"526","peak 1","13291",5.28571428571429,"Union","Georgia","South",34.8341,-83.9907,23288,0.179971718729914,9,57049,4.4
"527","peak 1","13293",4.14285714285714,"Upson","Georgia","South",32.8813,-84.2993,26236,0.325687717938783,6,40926,6.6
"528","peak 1","13295",7.28571428571429,"Walker","Georgia","South",34.7356,-85.301,69039,0.196566055733461,2,47548,4.9
"529","peak 1","13297",15,"Walton","Georgia","South",33.7816,-83.7339,91442,0.248233613215118,1,67007,5.4
"530","peak 1","13299",20.8571428571429,"Ware","Georgia","South",31.0538,-82.4237,35593,0.293819155683981,5,37642,5.6
"531","peak 1","13301",0.142857142857143,"Warren","Georgia","South",33.4089,-82.6768,5297,0.553962264150943,8,37313,6.8
"532","peak 1","13303",12.5714285714286,"Washington","Georgia","South",32.9695,-82.7959,20436,0.500474833808167,7,41674,6.4
"533","peak 1","13305",17.8571428571429,"Wayne","Georgia","South",31.5514,-81.9167,29788,0.210345097425464,6,47382,5.6
"534","peak 1","13307",0.142857142857143,"Webster","Georgia","South",32.0466,-84.551,2610,0.460100647016535,8,41547,5.7
"535","peak 1","13309",0.571428571428571,"Wheeler","Georgia","South",32.1171,-82.7246,7928,0.301531728665208,9,35927,7.2
"536","peak 1","13311",5,"White","Georgia","South",34.6464,-83.7471,29489,0.162729481641469,6,54786,4.4
"537","peak 1","13313",49.2857142857143,"Whitfield","Georgia","South",34.8056,-84.9672,104237,0.290485774900723,3,53115,7.3
"538","peak 1","13315",0.571428571428571,"Wilcox","Georgia","South",31.9729,-83.4323,8824,0.262580054894785,8,38261,5.7
"539","peak 1","13317",2.71428571428571,"Wilkes","Georgia","South",33.7819,-82.7432,9844,0.429423459244533,6,39716,6.7
"540","peak 1","13319",3.14285714285714,"Wilkinson","Georgia","South",32.8024,-83.1712,9010,0.434800838574423,8,43902,5.4
"541","peak 1","13321",3.42857142857143,"Worth","Georgia","South",31.5515,-83.8509,20494,0.257942918686053,3,43142,5.4
"542","peak 1","15001",0.428571428571429,"Hawaii","Hawaii","West",19.5987,-155.5185,199459,0.668811351265174,5,64929,11.4
"543","peak 1","15003",38,"Honolulu","Hawaii","West",21.5008,-158.1053,984821,0.625124962707464,2,86946,10.2
"544","peak 1","15007",0.285714285714286,"Kauai","Hawaii","West",22.0396,-159.5963,71769,0.633638833328358,5,73029,16.2
"545","peak 1","15009",2.57142857142857,"Maui","Hawaii","West",20.8596,-156.5648,165979,0.665854963121446,3,77375,17.8
"546","peak 1","16001",156.142857142857,"Ada","Idaho","West",43.4511,-116.2412,456849,0.464703591902509,2,72295,5.4
"547","peak 1","16003",0.142857142857143,"Adams","Idaho","West",44.8896,-116.4538,4097,0.228538283062645,9,50042,9.3
"548","peak 1","16005",6.71428571428571,"Bannock","Idaho","West",42.6685,-112.2246,85765,0.371198139205623,3,53306,4.9
"549","peak 1","16007",0.428571428571429,"Bear Lake","Idaho","West",42.2848,-111.3297,6000,0.105580693815988,9,54550,4.2
"550","peak 1","16009",0.857142857142857,"Benewah","Idaho","West",47.2176,-116.6587,9138,0.196460888799517,6,49303,7.5
"551","peak 1","16011",3.42857142857143,"Bingham","Idaho","West",43.2166,-112.3981,45839,0.205235393649846,4,59959,3.9
"552","peak 1","16013",0.571428571428571,"Blaine","Idaho","West",43.4119,-113.9802,22373,0.671207104154124,7,75778,7.8
"553","peak 1","16015",1.85714285714286,"Boise","Idaho","West",43.9891,-115.7304,7378,0.249792531120332,2,64443,8
"554","peak 1","16017",4.42857142857143,"Bonner","Idaho","West",48.3,-116.6011,43611,0.303816905527932,6,56729,7.5
"555","peak 1","16019",20.4285714285714,"Bonneville","Idaho","West",43.3877,-111.6148,114392,0.263987406241319,3,65165,4
"556","peak 1","16021",2.28571428571429,"Boundary","Idaho","West",48.7669,-116.4629,11845,0.193252019642009,7,50709,6.2
"557","peak 1","16025",0,"Camas","Idaho","West",43.4633,-114.8058,1048,0.197612732095491,9,56014,4.8
"558","peak 1","16027",113,"Canyon","Idaho","West",43.6251,-116.7093,217633,0.286173953426657,2,58670,5.9
"559","peak 1","16029",0,"Caribou","Idaho","West",42.7705,-111.5623,6953,0.126170960187354,6,61518,3.6
"560","peak 1","16031",4,"Cassia","Idaho","West",42.2839,-113.6001,23690,0.152040710354139,7,53284,3.7
"561","peak 1","16033",0,"Clark","Idaho","West",44.2839,-112.3512,913,0.131832797427653,9,48726,4
"562","peak 1","16035",0.857142857142857,"Clearwater","Idaho","West",46.6736,-115.6567,8673,0.198461190314551,6,49816,8.2
"563","peak 1","16037",0.142857142857143,"Custer","Idaho","West",44.2411,-114.2817,4169,0.220153340635268,8,49055,5
"564","peak 1","16039",3.14285714285714,"Elmore","Idaho","West",43.354,-115.4693,26743,0.254875061244488,6,47796,4.8
"565","peak 1","16041",1.14285714285714,"Franklin","Idaho","West",42.1811,-111.8132,13464,0.0985894357743097,3,55421,3.6
"566","peak 1","16043",1.57142857142857,"Fremont","Idaho","West",44.2288,-111.4819,13020,0.14853400803691,6,56162,3.6
"567","peak 1","16045",3.28571428571429,"Gem","Idaho","West",44.0616,-116.3975,17331,0.181060453906407,2,53733,5.9
"568","peak 1","16047",2.85714285714286,"Gooding","Idaho","West",42.971,-114.8115,15148,0.207603305785124,7,50205,3.8
"569","peak 1","16049",1,"Idaho","Idaho","West",45.8441,-115.4675,16411,0.162570297854614,6,48866,6.7
"570","peak 1","16051",4.71428571428571,"Jefferson","Idaho","West",43.8201,-112.3113,28534,0.117194665914062,3,63078,3.4
"571","peak 1","16053",1.85714285714286,"Jerome","Idaho","West",42.6899,-114.2639,23730,0.242319508448541,7,56320,4
"572","peak 1","16055",34.4285714285714,"Kootenai","Idaho","West",47.6744,-116.7018,157322,0.270500011126193,3,62764,6.9
"573","peak 1","16057",2.85714285714286,"Latah","Idaho","West",46.8162,-116.7117,39505,0.497617890131259,4,54999,4.7
"574","peak 1","16059",0.285714285714286,"Lemhi","Idaho","West",44.9433,-113.9333,7847,0.217813423385395,7,46062,6.7
"575","peak 1","16063",0.571428571428571,"Lincoln","Idaho","West",43.0024,-114.1383,5350,0.21340206185567,9,50608,5.8
"576","peak 1","16065",2.14285714285714,"Madison","Idaho","West",43.7841,-111.6592,39100,0.155797101449275,4,46177,2.7
"577","peak 1","16067",7.42857142857143,"Minidoka","Idaho","West",42.8543,-113.6375,20705,0.193919679719755,7,56173,3.8
"578","peak 1","16069",0.857142857142857,"Nez Perce","Idaho","West",46.3268,-116.7502,40217,0.318882052749559,3,67645,4.9
"579","peak 1","16071",0.142857142857143,"Oneida","Idaho","West",42.195,-112.5394,4385,0.101591187270502,8,55833,4.2
"580","peak 1","16073",5.57142857142857,"Owyhee","Idaho","West",42.5815,-116.1699,11552,0.172079291438212,2,48395,6
"581","peak 1","16075",5.28571428571429,"Payette","Idaho","West",44.0067,-116.7608,23260,0.191357478083769,6,53643,5.3
"582","peak 1","16077",0.857142857142857,"Power","Idaho","West",42.6937,-112.8407,7671,0.280298120544394,6,50981,4.1
"583","peak 1","16079",1.71428571428571,"Shoshone","Idaho","West",47.3529,-115.8924,12609,0.279880972061498,6,39239,9.1
"584","peak 1","16081",0.571428571428571,"Teton","Idaho","West",43.7594,-111.2076,11426,0.522766661414842,9,73637,5.7
"585","peak 1","16083",11.7142857142857,"Twin Falls","Idaho","West",42.356,-114.6672,84869,0.256025081788441,5,56141,5.3
"586","peak 1","16085",0.714285714285714,"Valley","Idaho","West",44.7666,-115.5663,10709,0.421350700835339,8,64041,7.9
"587","peak 1","16087",2.42857142857143,"Washington","Idaho","West",44.4524,-116.7847,10057,0.200785928143713,6,45813,5.4
"588","peak 1","17001",7.28571428571429,"Adams","Illinois","Midwest",39.9879,-91.1885,66085,0.257493960091866,5,55942,6.3
"589","peak 1","17003",0.428571428571429,"Alexander","Illinois","Midwest",37.1915,-89.3375,6260,0.424380952380952,3,37408,9.8
"590","peak 1","17005",1.85714285714286,"Bond","Illinois","Midwest",38.8868,-89.4356,16589,0.280943025540275,1,53447,6.8
"591","peak 1","17007",5.71428571428571,"Boone","Illinois","Midwest",42.3231,-88.8234,53537,0.42203450898755,2,72426,11.2
"592","peak 1","17009",0.142857142857143,"Brown","Illinois","Midwest",39.9618,-90.7504,6628,0.192475247524752,7,60254,3.8
"593","peak 1","17011",3.57142857142857,"Bureau","Illinois","Midwest",41.4041,-89.5287,33122,0.382528392795687,7,57935,7.6
"594","peak 1","17013",0.571428571428571,"Calhoun","Illinois","Midwest",39.1693,-90.6676,4830,0.244139920663541,1,63373,7.6
"595","peak 1","17015",1.42857142857143,"Carroll","Illinois","Midwest",42.0687,-89.9343,14466,0.34247258225324,7,56468,7.2
"596","peak 1","17017",2,"Cass","Illinois","Midwest",39.9735,-90.2474,12493,0.303229440480661,6,51011,6.7
"597","peak 1","17019",19.8571428571429,"Champaign","Illinois","Midwest",40.1401,-88.1992,209922,0.597135024275908,3,53485,6.4
"598","peak 1","17021",3.28571428571429,"Christian","Illinois","Midwest",39.5458,-89.2773,32931,0.267526536657615,6,51573,8.1
"599","peak 1","17023",1,"Clark","Illinois","Midwest",39.3336,-87.7877,15716,0.238539796529025,6,58323,7.9
"600","peak 1","17025",0.142857142857143,"Clay","Illinois","Midwest",38.7542,-88.4902,13287,0.163646905348601,7,49377,9.4
"601","peak 1","17027",3.85714285714286,"Clinton","Illinois","Midwest",38.6065,-89.4225,37634,0.233839908400125,1,67201,5.8
"602","peak 1","17029",6.85714285714286,"Coles","Illinois","Midwest",39.5203,-88.2218,51353,0.356852163142529,5,50467,7.4
"603","peak 1","17031",504.428571428571,"Cook","Illinois","Midwest",41.8401,-87.8168,5198275,0.743505532655093,1,69375,11.1
"604","peak 1","17033",0.571428571428571,"Crawford","Illinois","Midwest",39.0027,-87.7596,18972,0.233238004448681,7,50352,7
"605","peak 1","17035",0.571428571428571,"Cumberland","Illinois","Midwest",39.2734,-88.2402,10836,0.195213675213675,9,53991,5.7
"606","peak 1","17037",7.71428571428571,"DeKalb","Illinois","Midwest",41.8935,-88.7703,104366,0.513513513513513,1,64676,8.2
"607","peak 1","17039",0.571428571428571,"De Witt","Illinois","Midwest",40.1746,-88.9041,15932,0.273055832502493,3,59521,6.5
"608","peak 1","17041",2,"Douglas","Illinois","Midwest",39.7694,-88.2174,19623,0.266552511415525,6,64283,5.6
"609","peak 1","17043",80.4285714285714,"DuPage","Illinois","Midwest",41.852,-88.0856,929060,0.579762670492966,1,96354,7.9
"610","peak 1","17045",0.857142857142857,"Edgar","Illinois","Midwest",39.6786,-87.7456,17407,0.230234260614934,6,51333,6.6
"611","peak 1","17047",0.142857142857143,"Edwards","Illinois","Midwest",38.4165,-88.0533,6455,0.144893111638955,9,54930,8.2
"612","peak 1","17049",2.42857142857143,"Effingham","Illinois","Midwest",39.0598,-88.5899,34137,0.194728292197244,7,58943,6.6
"613","peak 1","17051",0.714285714285714,"Fayette","Illinois","Midwest",39.0002,-89.0241,21565,0.181222707423581,6,48913,7.5
"614","peak 1","17053",0.571428571428571,"Ford","Illinois","Midwest",40.5972,-88.2233,13270,0.251758289077078,3,55369,6.4
"615","peak 1","17055",3.28571428571429,"Franklin","Illinois","Midwest",37.9923,-88.9242,38923,0.254968128983877,4,43695,10.5
"616","peak 1","17057",0.571428571428571,"Fulton","Illinois","Midwest",40.4728,-90.2075,35092,0.388842382205214,6,50461,8.6
"617","peak 1","17059",2.14285714285714,"Gallatin","Illinois","Midwest",37.7627,-88.2304,5064,0.232523364485981,8,46515,9.2
"618","peak 1","17061",0.428571428571429,"Greene","Illinois","Midwest",39.3562,-90.3905,13132,0.216637224987956,6,52116,6.5
"619","peak 1","17063",4.42857142857143,"Grundy","Illinois","Midwest",41.2851,-88.4185,50666,0.359810114753486,1,83135,8.8
"620","peak 1","17065",0.285714285714286,"Hamilton","Illinois","Midwest",38.0815,-88.5391,8176,0.190608373814481,7,51031,6.7
"621","peak 1","17067",0.714285714285714,"Hancock","Illinois","Midwest",40.4037,-91.1647,17983,0.246722796546947,7,53724,6.9
"622","peak 1","17069",1.14285714285714,"Hardin","Illinois","Midwest",37.5182,-88.2668,3939,0.207678075855689,9,44573,9.2
"623","peak 1","17071",0.142857142857143,"Henderson","Illinois","Midwest",40.818,-90.9251,6809,0.324671772428884,9,55535,6.9
"624","peak 1","17073",2.28571428571429,"Henry","Illinois","Midwest",41.3531,-90.1314,49267,0.381206225680934,2,61680,7.8
"625","peak 1","17075",4.14285714285714,"Iroquois","Illinois","Midwest",40.7473,-87.8243,27812,0.207063514668186,6,51542,6.2
"626","peak 1","17077",15.7142857142857,"Jackson","Illinois","Midwest",37.7851,-89.3821,57977,0.492208135235077,3,37308,7.7
"627","peak 1","17079",0.142857142857143,"Jasper","Illinois","Midwest",39.0101,-88.1538,9594,0.180272108843537,7,59980,6
"628","peak 1","17081",2.71428571428571,"Jefferson","Illinois","Midwest",38.3005,-88.924,37985,0.264280798348245,7,50531,10.1
"629","peak 1","17083",0.714285714285714,"Jersey","Illinois","Midwest",39.0855,-90.3565,21937,0.24757525083612,1,63351,7.4
"630","peak 1","17085",4.28571428571429,"Jo Daviess","Illinois","Midwest",42.3658,-90.2125,21588,0.408883553421369,6,62522,8.3
"631","peak 1","17087",1.14285714285714,"Johnson","Illinois","Midwest",37.4597,-88.8809,12494,0.198604651162791,8,55022,8.9
"632","peak 1","17089",37.8571428571429,"Kane","Illinois","Midwest",41.9388,-88.4286,531376,0.561360382273284,1,84311,9.1
"633","peak 1","17091",10.2857142857143,"Kankakee","Illinois","Midwest",41.1377,-87.8618,110637,0.405104018865285,3,60763,8.8
"634","peak 1","17093",9.28571428571429,"Kendall","Illinois","Midwest",41.5906,-88.4288,126054,0.516595280741375,1,105586,8.4
"635","peak 1","17095",3.71428571428571,"Knox","Illinois","Midwest",40.9318,-90.2132,50508,0.461236802413273,4,43404,8.6
"636","peak 1","17097",78.7142857142857,"Lake","Illinois","Midwest",42.3233,-88.0037,701473,0.610589066184656,1,92638,8.1
"637","peak 1","17099",10.1428571428571,"LaSalle","Illinois","Midwest",41.344,-88.8859,109737,0.418046681444778,4,59528,9.4
"638","peak 1","17101",1.14285714285714,"Lawrence","Illinois","Midwest",38.72,-87.7268,16033,0.220959202740579,7,47114,8.7
"639","peak 1","17103",1.28571428571429,"Lee","Illinois","Midwest",41.7461,-89.3003,34389,0.389720194647202,6,57619,6.8
"640","peak 1","17105",1.57142857142857,"Livingston","Illinois","Midwest",40.8916,-88.5577,36040,0.268720158378945,4,54422,6.7
"641","peak 1","17107",2,"Logan","Illinois","Midwest",40.1245,-89.3675,29003,0.28885211373552,6,53806,6.7
"642","peak 1","17109",0.428571428571429,"McDonough","Illinois","Midwest",40.4562,-90.6779,30479,0.406349206349206,5,49048,7.1
"643","peak 1","17111",22.2857142857143,"McHenry","Illinois","Midwest",42.3244,-88.4523,307714,0.474875135194254,1,89379,8.3
"644","peak 1","17113",8.14285714285714,"McLean","Illinois","Midwest",40.4909,-88.8473,172578,0.502729176440971,3,69230,6.8
"645","peak 1","17115",10.2857142857143,"Macon","Illinois","Midwest",39.86,-88.9616,105528,0.401866888047462,3,52259,9.9
"646","peak 1","17117",2.85714285714286,"Macoupin","Illinois","Midwest",39.261,-89.9245,45463,0.305982550893228,1,54174,6.9
"647","peak 1","17119",43.7142857142857,"Madison","Illinois","Midwest",38.8297,-89.9049,264776,0.420448101891566,1,66591,7.7
"648","peak 1","17121",3,"Marion","Illinois","Midwest",38.6496,-88.919,37743,0.258632517722387,4,52291,9.3
"649","peak 1","17123",0.285714285714286,"Marshall","Illinois","Midwest",41.0332,-89.3448,11679,0.315996847911742,2,63628,7.4
"650","peak 1","17125",0.571428571428571,"Mason","Illinois","Midwest",40.2396,-89.9168,13621,0.293378657995862,6,51967,8
"651","peak 1","17127",1.14285714285714,"Massac","Illinois","Midwest",37.219,-88.7077,14219,0.253006746846583,7,54159,10
"652","peak 1","17129",0.714285714285714,"Menard","Illinois","Midwest",40.0274,-89.8022,12306,0.29076790336497,3,77306,6.4
"653","peak 1","17131",1.71428571428571,"Mercer","Illinois","Midwest",41.2053,-90.7414,15589,0.367960511554858,2,62241,8
"654","peak 1","17133",3.71428571428571,"Monroe","Illinois","Midwest",38.2784,-90.1773,34168,0.309770819579364,1,90904,5.6
"655","peak 1","17135",2.85714285714286,"Montgomery","Illinois","Midwest",39.231,-89.4789,28828,0.283772981614708,6,51665,8.7
"656","peak 1","17137",1.57142857142857,"Morgan","Illinois","Midwest",39.7156,-90.2015,34247,0.331050675014674,4,55937,6.9
"657","peak 1","17139",2.28571428571429,"Moultrie","Illinois","Midwest",39.6415,-88.6193,14641,0.24644128113879,6,65472,5
"658","peak 1","17141",1.42857142857143,"Ogle","Illinois","Midwest",42.0426,-89.3207,51025,0.35793470007593,4,63565,8.1
"659","peak 1","17143",25.7142857142857,"Peoria","Illinois","Midwest",40.788,-89.76,182770,0.518952520453003,2,57717,10.4
"660","peak 1","17145",3.42857142857143,"Perry","Illinois","Midwest",38.0837,-89.367,21251,0.25935855426472,6,56880,9.4
"661","peak 1","17147",0.142857142857143,"Piatt","Illinois","Midwest",40.0103,-88.5911,16401,0.337935235001523,3,72265,5.4
"662","peak 1","17149",0.285714285714286,"Pike","Illinois","Midwest",39.6225,-90.8863,15672,0.18631512868801,7,54309,6
"663","peak 1","17151",0.571428571428571,"Pope","Illinois","Midwest",37.4127,-88.5615,4203,0.199080459770115,8,46478,7.9
"664","peak 1","17153",0.142857142857143,"Pulaski","Illinois","Midwest",37.223,-89.1266,5510,0.338654503990878,8,38506,11.7
"665","peak 1","17155",0.714285714285714,"Putnam","Illinois","Midwest",41.2045,-89.2858,5721,0.394690265486726,8,74367,8.3
"666","peak 1","17157",4.85714285714286,"Randolph","Illinois","Midwest",38.0521,-89.8252,32295,0.240912139503689,6,58444,7.1
"667","peak 1","17159",0.428571428571429,"Richland","Illinois","Midwest",38.7124,-88.0851,15766,0.226962668981769,7,49775,6.8
"668","peak 1","17161",16.1428571428571,"Rock Island","Illinois","Midwest",41.4673,-90.5674,143873,0.549126719248096,2,57772,9.4
"669","peak 1","17163",54,"St. Clair","Illinois","Midwest",38.4703,-89.9284,262338,0.533355710984825,1,57726,9
"670","peak 1","17165",3.57142857142857,"Saline","Illinois","Midwest",37.7531,-88.5407,23994,0.251510505906754,6,48547,9.7
"671","peak 1","17167",19.7142857142857,"Sangamon","Illinois","Midwest",39.7582,-89.6589,196861,0.466983608748365,3,61768,8.2
"672","peak 1","17169",0,"Schuyler","Illinois","Midwest",40.158,-90.6151,6953,0.272588055130168,7,56015,6.2
"673","peak 1","17171",0.714285714285714,"Scott","Illinois","Midwest",39.6441,-90.4747,5005,0.208682962422474,9,61231,6.6
"674","peak 1","17173",1.28571428571429,"Shelby","Illinois","Midwest",39.3911,-88.8055,21737,0.206993469455237,6,61376,6.4
"675","peak 1","17175",0.142857142857143,"Stark","Illinois","Midwest",41.0934,-89.7975,5447,0.282397782397782,2,54804,7.3
"676","peak 1","17177",2.42857142857143,"Stephenson","Illinois","Midwest",42.3518,-89.6623,45093,0.410694847605225,4,51786,7.3
"677","peak 1","17179",6.85714285714286,"Tazewell","Illinois","Midwest",40.5075,-89.5134,133195,0.359429986531694,2,66206,8.1
"678","peak 1","17181",4.57142857142857,"Union","Illinois","Midwest",37.4713,-89.2551,16968,0.289645103324349,6,51575,8.1
"679","peak 1","17183",6.28571428571429,"Vermilion","Illinois","Midwest",40.1834,-87.7328,77563,0.326243600278111,3,46295,8.8
"680","peak 1","17185",0.285714285714286,"Wabash","Illinois","Midwest",38.4461,-87.8443,11546,0.223470661672909,7,54249,8.3
"681","peak 1","17187",2.42857142857143,"Warren","Illinois","Midwest",40.8488,-90.615,17146,0.389954568399798,6,53621,6.2
"682","peak 1","17189",1.14285714285714,"Washington","Illinois","Midwest",38.3522,-89.4105,14058,0.207170811766191,6,64297,5.3
"683","peak 1","17191",0.285714285714286,"Wayne","Illinois","Midwest",38.4296,-88.4256,16402,0.139663489822332,7,51829,8.3
"684","peak 1","17193",2.42857142857143,"White","Illinois","Midwest",38.0875,-88.1796,13868,0.204144798815772,6,51388,7.6
"685","peak 1","17195",6.57142857142857,"Whiteside","Illinois","Midwest",41.7562,-89.9141,56016,0.447598173515982,4,50880,8
"686","peak 1","17197",55.8571428571429,"Will","Illinois","Midwest",41.445,-87.9786,689315,0.531137911316733,1,90249,9.5
"687","peak 1","17199",7.71428571428571,"Williamson","Illinois","Midwest",37.7303,-88.9299,67102,0.302588277150227,3,56958,8.7
"688","peak 1","17201",22,"Winnebago","Illinois","Midwest",42.3363,-89.1609,284819,0.501573878318064,2,59510,11.4
"689","peak 1","17203",0.714285714285714,"Woodford","Illinois","Midwest",40.7882,-89.2111,38700,0.286538282630942,2,77117,6.1
"690","peak 1","18001",1.85714285714286,"Adams","Indiana","Midwest",40.7457,-84.9366,35376,0.227742979801534,6,53532,5.6
"691","peak 1","18003",26,"Allen","Indiana","Midwest",41.0909,-85.0666,372575,0.432860978696727,2,56838,7.7
"692","peak 1","18005",6.71428571428571,"Bartholomew","Indiana","Midwest",39.206,-85.8976,82481,0.356947702497585,3,71181,6.5
"693","peak 1","18007",0.428571428571429,"Benton","Indiana","Midwest",40.6063,-87.3109,8677,0.245260087506077,3,55016,5.2
"694","peak 1","18009",0.428571428571429,"Blackford","Indiana","Midwest",40.4736,-85.3248,12013,0.257196261682243,6,46811,8
"695","peak 1","18011",6.42857142857143,"Boone","Indiana","Midwest",40.0508,-86.4687,65544,0.395742471443406,1,84137,4.3
"696","peak 1","18013",1.28571428571429,"Brown","Indiana","Midwest",39.1962,-86.2274,15064,0.338046988085959,1,59617,6.7
"697","peak 1","18015",0.142857142857143,"Carroll","Indiana","Midwest",40.5828,-86.5635,20074,0.234228541337546,3,58965,6
"698","peak 1","18017",6.28571428571429,"Cass","Indiana","Midwest",40.7615,-86.346,37880,0.283195157257534,4,51777,6.8
"699","peak 1","18019",18.5714285714286,"Clark","Indiana","Midwest",38.4772,-85.7073,116507,0.399056489657675,1,59441,7.2
"700","peak 1","18021",1.42857142857143,"Clay","Indiana","Midwest",39.3928,-87.1158,26234,0.208037825059102,3,54349,6.6
"701","peak 1","18023",2.28571428571429,"Clinton","Indiana","Midwest",40.3017,-86.4751,32273,0.259556722526836,6,55336,5.6
"702","peak 1","18025",0.428571428571429,"Crawford","Indiana","Midwest",38.2924,-86.4517,10569,0.274069579288026,8,44332,7.1
"703","peak 1","18027",4.42857142857143,"Daviess","Indiana","Midwest",38.7024,-87.072,33120,0.181445541241425,7,56611,3.8
"704","peak 1","18029",9.14285714285714,"Dearborn","Indiana","Midwest",39.1452,-84.9732,49479,0.214553047315132,1,71351,6.9
"705","peak 1","18031",1.71428571428571,"Decatur","Indiana","Midwest",39.307,-85.5011,26562,0.198502482298364,6,60891,7.5
"706","peak 1","18033",3.14285714285714,"DeKalb","Indiana","Midwest",41.3976,-84.9991,42927,0.253005909924598,4,59714,6.9
"707","peak 1","18035",6.14285714285714,"Delaware","Indiana","Midwest",40.2275,-85.3969,115020,0.424851113278413,3,45912,7.3
"708","peak 1","18037",16.4285714285714,"Dubois","Indiana","Midwest",38.3643,-86.8798,42543,0.289021589343133,5,63869,4.5
"709","peak 1","18039",43,"Elkhart","Indiana","Midwest",41.5974,-85.8587,204558,0.350975304824768,3,55782,7.5
"710","peak 1","18041",3.28571428571429,"Fayette","Indiana","Midwest",39.64,-85.1788,23194,0.220698500394633,6,48499,9.9
"711","peak 1","18043",12.1428571428571,"Floyd","Indiana","Midwest",38.3189,-85.9068,77320,0.418903401751112,1,64614,6.5
"712","peak 1","18045",1.57142857142857,"Fountain","Indiana","Midwest",40.1209,-87.242,16430,0.203981968444778,6,55337,6.5
"713","peak 1","18047",4.14285714285714,"Franklin","Indiana","Midwest",39.4149,-85.0602,22774,0.178083333333333,6,67315,5.9
"714","peak 1","18049",2.57142857142857,"Fulton","Indiana","Midwest",41.047,-86.2635,20096,0.249262053132174,7,55011,6.6
"715","peak 1","18051",3,"Gibson","Indiana","Midwest",38.3119,-87.5846,33656,0.248932615555968,6,61872,6.2
"716","peak 1","18053",11.8571428571429,"Grant","Indiana","Midwest",40.5158,-85.6547,66452,0.295113958540447,4,47509,6.3
"717","peak 1","18055",2.14285714285714,"Greene","Indiana","Midwest",39.0364,-86.962,32159,0.229234307359307,6,51918,6.2
"718","peak 1","18057",39.8571428571429,"Hamilton","Indiana","Midwest",40.0725,-86.052,323117,0.455620905262398,1,107710,4.7
"719","peak 1","18059",8.57142857142857,"Hancock","Indiana","Midwest",39.8236,-85.7733,75164,0.300505697839715,1,77905,5.6
"720","peak 1","18061",2.14285714285714,"Harrison","Indiana","Midwest",38.1952,-86.1113,39940,0.264034394149041,1,64270,6.3
"721","peak 1","18063",12,"Hendricks","Indiana","Midwest",39.7695,-86.51,163799,0.368385966894526,1,85827,5
"722","peak 1","18065",2.71428571428571,"Henry","Indiana","Midwest",39.9311,-85.3964,48255,0.263623395149786,4,49293,6.6
"723","peak 1","18067",9.42857142857143,"Howard","Indiana","Midwest",40.4836,-86.117,82331,0.327418163918287,3,54048,10.9
"724","peak 1","18069",0.714285714285714,"Huntington","Indiana","Midwest",40.8292,-85.4881,36359,0.238656122048348,6,54565,6.6
"725","peak 1","18071",2.71428571428571,"Jackson","Indiana","Midwest",38.9064,-86.0375,44025,0.22361991891049,4,59472,7.2
"726","peak 1","18073",4,"Jasper","Indiana","Midwest",41.023,-87.1161,33447,0.245428109854604,1,65352,7
"727","peak 1","18075",0.285714285714286,"Jay","Indiana","Midwest",40.438,-85.0057,20840,0.227632667533388,6,49447,6.6
"728","peak 1","18077",2.42857142857143,"Jefferson","Indiana","Midwest",38.7858,-85.4385,32201,0.321902429067157,6,53378,7.4
"729","peak 1","18079",1,"Jennings","Indiana","Midwest",38.9969,-85.628,27710,0.205942372051261,6,55022,7.6
"730","peak 1","18081",15,"Johnson","Indiana","Midwest",39.49,-86.1016,153716,0.318688963900126,1,74427,5.6
"731","peak 1","18083",2.57142857142857,"Knox","Indiana","Midwest",38.6891,-87.418,37065,0.254012866154519,5,48760,5.9
"732","peak 1","18085",11.5714285714286,"Kosciusko","Indiana","Midwest",41.2441,-85.8607,79035,0.233716153910638,4,64677,6.1
"733","peak 1","18087",3.57142857142857,"LaGrange","Indiana","Midwest",41.6426,-85.4265,39193,0.221480297188,6,70746,6.4
"734","peak 1","18089",64.8571428571429,"Lake","Indiana","Midwest",41.4171,-87.3822,485707,0.567704449980905,1,57280,10.3
"735","peak 1","18091",8,"LaPorte","Indiana","Midwest",41.546,-86.74,110154,0.454061386459346,3,56427,9.5
"736","peak 1","18093",2.57142857142857,"Lawrence","Indiana","Midwest",38.8412,-86.4835,45548,0.235957193816885,6,56261,6.9
"737","peak 1","18095",6.71428571428571,"Madison","Indiana","Midwest",40.1616,-85.7194,129455,0.376962137740621,1,54145,7.9
"738","peak 1","18097",122.714285714286,"Marion","Indiana","Midwest",39.7817,-86.1385,951869,0.635934079190183,1,50707,7.9
"739","peak 1","18099",5.57142857142857,"Marshall","Indiana","Midwest",41.3248,-86.2618,46461,0.286646258844783,6,53695,6.4
"740","peak 1","18101",0.571428571428571,"Martin","Indiana","Midwest",38.708,-86.8031,10212,0.19653965785381,7,56735,4.2
"741","peak 1","18103",3.85714285714286,"Miami","Indiana","Midwest",40.7695,-86.045,35815,0.22351965729289,6,53658,8.2
"742","peak 1","18105",16.1428571428571,"Monroe","Indiana","Midwest",39.1609,-86.5231,146461,0.631201406153505,3,53113,5.5
"743","peak 1","18107",1.57142857142857,"Montgomery","Indiana","Midwest",40.0404,-86.8933,38287,0.244970345388999,6,54366,5.2
"744","peak 1","18109",3.71428571428571,"Morgan","Indiana","Midwest",39.4816,-86.4462,69922,0.215188473132553,1,63414,5.4
"745","peak 1","18111",0.571428571428571,"Newton","Indiana","Midwest",40.9558,-87.3976,13992,0.228948566226673,1,61457,6.9
"746","peak 1","18113",4.71428571428571,"Noble","Indiana","Midwest",41.3986,-85.4175,47506,0.242834809796769,6,60980,8.4
"747","peak 1","18115",0.571428571428571,"Ohio","Indiana","Midwest",38.9501,-84.9651,5874,0.237041719342604,1,58294,7.4
"748","peak 1","18117",1.28571428571429,"Orange","Indiana","Midwest",38.5418,-86.495,19545,0.251811594202899,6,47931,11.1
"749","peak 1","18119",2,"Owen","Indiana","Midwest",39.3128,-86.8377,20835,0.244345718901454,3,53387,6.3
"750","peak 1","18121",1.14285714285714,"Parke","Indiana","Midwest",39.7736,-87.2064,16946,0.214377406931964,6,51554,5.5
"751","peak 1","18123",0.428571428571429,"Perry","Indiana","Midwest",38.0796,-86.638,19102,0.367232286172896,6,53908,6.5
"752","peak 1","18125",0.714285714285714,"Pike","Indiana","Midwest",38.3988,-87.2322,12378,0.227491961414791,8,52378,5.9
"753","peak 1","18127",17.2857142857143,"Porter","Indiana","Midwest",41.4605,-87.0673,168636,0.45944352610711,1,74064,8.1
"754","peak 1","18129",4.57142857142857,"Posey","Indiana","Midwest",38.0218,-87.8685,25560,0.287926866122696,2,68435,4.9
"755","peak 1","18131",0.285714285714286,"Pulaski","Indiana","Midwest",41.0419,-86.6988,12559,0.251980709610747,6,52432,6.1
"756","peak 1","18133",1.85714285714286,"Putnam","Indiana","Midwest",39.6663,-86.845,37384,0.237753810929686,1,64098,6.2
"757","peak 1","18135",1.71428571428571,"Randolph","Indiana","Midwest",40.1576,-85.0114,24926,0.227009936766034,6,50496,6.6
"758","peak 1","18137",3.14285714285714,"Ripley","Indiana","Midwest",39.1035,-85.2624,28391,0.194380211617967,6,61219,6.4
"759","peak 1","18139",0.857142857142857,"Rush","Indiana","Midwest",39.62,-85.4658,16641,0.221129601613717,6,54371,6.3
"760","peak 1","18141",39.5714285714286,"St. Joseph","Indiana","Midwest",41.6167,-86.2899,270216,0.519759107238932,2,53881,8.4
"761","peak 1","18143",3.57142857142857,"Scott","Indiana","Midwest",38.6851,-85.7475,23759,0.265525046747367,1,50571,8.4
"762","peak 1","18145",4.57142857142857,"Shelby","Indiana","Midwest",39.5237,-85.7917,44438,0.251263068380771,1,59798,7.1
"763","peak 1","18147",1.57142857142857,"Spencer","Indiana","Midwest",38.0141,-87.0077,20447,0.298356393351286,8,59183,5.6
"764","peak 1","18149",1.71428571428571,"Starke","Indiana","Midwest",41.2809,-86.6476,22952,0.257531584062196,6,54001,8
"765","peak 1","18151",4.42857142857143,"Steuben","Indiana","Midwest",41.6439,-85.0009,34453,0.279235243162975,7,59444,6.2
"766","peak 1","18153",0.285714285714286,"Sullivan","Indiana","Midwest",39.0888,-87.4147,20730,0.239381810095619,3,53375,7
"767","peak 1","18155",0.142857142857143,"Switzerland","Indiana","Midwest",38.8262,-85.037,10685,0.232065479056331,8,52482,8.1
"768","peak 1","18157",12.2857142857143,"Tippecanoe","Indiana","Midwest",40.3886,-86.8941,191553,0.490104691523906,3,51228,6.3
"769","peak 1","18159",3.85714285714286,"Tipton","Indiana","Midwest",40.3113,-86.0519,15162,0.225973385904386,6,69960,6.1
"770","peak 1","18161",1.14285714285714,"Union","Indiana","Midwest",39.6256,-84.9251,7113,0.21131208728108,1,53866,5.5
"771","peak 1","18163",40,"Vanderburgh","Indiana","Midwest",38.025,-87.5858,181291,0.443138214313306,2,51603,7.2
"772","peak 1","18165",0.285714285714286,"Vermillion","Indiana","Midwest",39.8538,-87.464,15539,0.286726373479481,3,50723,7.5
"773","peak 1","18167",11.2857142857143,"Vigo","Indiana","Midwest",39.4306,-87.39,107459,0.415722347111988,3,48082,7.9
"774","peak 1","18169",2.14285714285714,"Wabash","Indiana","Midwest",40.8457,-85.794,31389,0.239758457421258,6,59874,6.1
"775","peak 1","18171",0.428571428571429,"Warren","Indiana","Midwest",40.3469,-87.3533,8237,0.217799642218247,8,64109,5.4
"776","peak 1","18173",10.5714285714286,"Warrick","Indiana","Midwest",38.0922,-87.2721,62280,0.352449082148452,2,79644,5.4
"777","peak 1","18175",1.42857142857143,"Washington","Indiana","Midwest",38.6,-86.1053,27848,0.229343438503995,1,51948,6.9
"778","peak 1","18177",12.2857142857143,"Wayne","Indiana","Midwest",39.8644,-85.0098,66342,0.344087575418187,5,47885,6.8
"779","peak 1","18179",3,"Wells","Indiana","Midwest",40.7292,-85.2212,28011,0.208398576512456,2,61636,5.7
"780","peak 1","18181",3.42857142857143,"White","Indiana","Midwest",40.7498,-86.8655,24149,0.271538599319362,6,58295,5
"781","peak 1","18183",2.85714285714286,"Whitley","Indiana","Midwest",41.1394,-85.5051,33730,0.241171109592162,2,67347,5.9
"782","peak 1","19001",0.285714285714286,"Adair","Iowa","Midwest",41.3307,-94.471,7085,0.286808714388317,8,57977,4
"783","peak 1","19003",0.142857142857143,"Adams","Iowa","Midwest",41.029,-94.6992,3670,0.273148148148148,9,53385,3.8
"784","peak 1","19005",0.571428571428571,"Allamakee","Iowa","Midwest",43.2843,-91.3781,13813,0.347076259768257,6,56240,5.1
"785","peak 1","19007",0.285714285714286,"Appanoose","Iowa","Midwest",40.7432,-92.8686,12452,0.290208717004297,7,41672,5.3
"786","peak 1","19009",0.714285714285714,"Audubon","Iowa","Midwest",41.6846,-94.9058,5571,0.313157894736842,8,53197,3.4
"787","peak 1","19011",2.71428571428571,"Benton","Iowa","Midwest",42.0802,-92.0657,25636,0.35241087283158,2,70023,5
"788","peak 1","19013",20.4285714285714,"Black Hawk","Iowa","Midwest",42.4701,-92.3088,132393,0.535296502635412,3,60010,6.2
"789","peak 1","19015",3.71428571428571,"Boone","Iowa","Midwest",42.0365,-93.9316,26370,0.410886571056063,6,63975,4.1
"790","peak 1","19017",3.57142857142857,"Bremer","Iowa","Midwest",42.7746,-92.3181,24864,0.409597140107246,3,67229,3.9
"791","peak 1","19019",2,"Buchanan","Iowa","Midwest",42.4708,-91.8379,21118,0.386950064971227,6,67906,4.6
"792","peak 1","19021",2.57142857142857,"Buena Vista","Iowa","Midwest",42.7355,-95.1511,20058,0.362556630341619,7,57048,3.7
"793","peak 1","19023",1.85714285714286,"Butler","Iowa","Midwest",42.7316,-92.7902,14628,0.299333168683626,8,57080,4.7
"794","peak 1","19025",0.428571428571429,"Calhoun","Iowa","Midwest",42.3852,-94.6404,9744,0.279573982502853,9,57007,4.1
"795","peak 1","19027",4.85714285714286,"Carroll","Iowa","Midwest",42.0362,-94.8606,20281,0.304719894133216,7,61379,4
"796","peak 1","19029",1,"Cass","Iowa","Midwest",41.3315,-94.9278,13091,0.302501374381528,6,53692,3.9
"797","peak 1","19031",0.857142857142857,"Cedar","Iowa","Midwest",41.7723,-91.1324,18457,0.405213491544427,6,71029,4.4
"798","peak 1","19033",12,"Cerro Gordo","Iowa","Midwest",43.0816,-93.2608,42834,0.459686567791269,5,54589,5.2
"799","peak 1","19035",1,"Cherokee","Iowa","Midwest",42.7356,-95.6238,11343,0.297023626879411,6,59901,3.8
"800","peak 1","19037",0.857142857142857,"Chickasaw","Iowa","Midwest",43.0601,-92.3177,12026,0.336751621173277,6,60111,4.7
"801","peak 1","19039",1.28571428571429,"Clarke","Iowa","Midwest",41.029,-93.7852,9360,0.313918629550321,6,57708,5.4
"802","peak 1","19041",0.714285714285714,"Clay","Iowa","Midwest",43.0826,-95.1509,16211,0.29680008919612,7,57174,4.5
"803","peak 1","19043",2.71428571428571,"Clayton","Iowa","Midwest",42.8447,-91.3414,17625,0.348134250573275,8,53223,5.7
"804","peak 1","19045",8.14285714285714,"Clinton","Iowa","Midwest",41.898,-90.532,46909,0.437963300522542,4,56865,6.7
"805","peak 1","19047",1.28571428571429,"Crawford","Iowa","Midwest",42.0372,-95.382,17034,0.310315907184792,7,58077,5.2
"806","peak 1","19049",14.1428571428571,"Dallas","Iowa","Midwest",41.6849,-94.0398,87099,0.479793652493663,2,97535,3.6
"807","peak 1","19051",0.285714285714286,"Davis","Iowa","Midwest",40.7477,-92.4097,8920,0.246952705997075,9,57150,4
"808","peak 1","19053",0.285714285714286,"Decatur","Iowa","Midwest",40.7377,-93.7863,7979,0.294426919032597,9,44873,3.8
"809","peak 1","19055",1.71428571428571,"Delaware","Iowa","Midwest",42.4712,-91.3673,17183,0.315605318404479,6,70091,4
"810","peak 1","19057",1.71428571428571,"Des Moines","Iowa","Midwest",40.9232,-91.1815,39386,0.445630386851072,5,53547,7.5
"811","peak 1","19059",1.85714285714286,"Dickinson","Iowa","Midwest",43.3779,-95.1509,17127,0.325595873354678,7,66211,5.1
"812","peak 1","19061",20,"Dubuque","Iowa","Midwest",42.4688,-90.8825,96982,0.47578162667359,3,62481,5.9
"813","peak 1","19063",3.42857142857143,"Emmet","Iowa","Midwest",43.3779,-94.6784,9438,0.313208324747579,7,55635,5
"814","peak 1","19065",1,"Fayette","Iowa","Midwest",42.8626,-91.8444,19803,0.376497152955036,6,53142,5.5
"815","peak 1","19067",0.142857142857143,"Floyd","Iowa","Midwest",43.0599,-92.789,15786,0.3949203187251,7,55369,6
"816","peak 1","19069",3.71428571428571,"Franklin","Iowa","Midwest",42.7325,-93.2625,10162,0.316959064327485,7,55847,3.8
"817","peak 1","19071",1.42857142857143,"Fremont","Iowa","Midwest",40.7456,-95.6047,6946,0.280010370754472,8,60498,3.1
"818","peak 1","19073",0,"Greene","Iowa","Midwest",42.0362,-94.3968,8950,0.34981214158592,6,55562,4.2
"819","peak 1","19075",1,"Grundy","Iowa","Midwest",42.4019,-92.7914,12299,0.303188565145684,3,73683,4.4
"820","peak 1","19077",1.71428571428571,"Guthrie","Iowa","Midwest",41.6837,-94.5011,10669,0.311568042693455,2,64965,5
"821","peak 1","19079",0.714285714285714,"Hamilton","Iowa","Midwest",42.3838,-93.7068,14997,0.357925217172353,6,63234,4.4
"822","peak 1","19081",3.42857142857143,"Hancock","Iowa","Midwest",43.0819,-93.7343,10802,0.272683084899546,7,62030,4.7
"823","peak 1","19083",4.14285714285714,"Hardin","Iowa","Midwest",42.3839,-93.2404,17061,0.331071309378129,6,57103,4.6
"824","peak 1","19085",1.71428571428571,"Harrison","Iowa","Midwest",41.6829,-95.8168,14089,0.299202942979767,2,63901,4
"825","peak 1","19087",0.571428571428571,"Henry","Iowa","Midwest",40.988,-91.5445,19941,0.328090563013424,6,57747,5.3
"826","peak 1","19089",0.428571428571429,"Howard","Iowa","Midwest",43.3568,-92.3172,9226,0.357402178297701,6,58028,4.5
"827","peak 1","19091",0.428571428571429,"Humboldt","Iowa","Midwest",42.7765,-94.2072,9554,0.270696452036794,7,56695,4.2
"828","peak 1","19093",0.571428571428571,"Ida","Iowa","Midwest",42.3869,-95.5135,6901,0.23824369966225,8,58249,3.6
"829","peak 1","19095",1.28571428571429,"Iowa","Iowa","Midwest",41.6863,-92.0655,16189,0.364093615274071,6,66861,4.4
"830","peak 1","19097",3.71428571428571,"Jackson","Iowa","Midwest",42.1717,-90.5743,19401,0.361832061068702,6,57687,6.1
"831","peak 1","19099",3.57142857142857,"Jasper","Iowa","Midwest",41.686,-93.0538,36971,0.383323424494649,6,67317,5.3
"832","peak 1","19101",0.571428571428571,"Jefferson","Iowa","Midwest",41.0318,-91.9489,18148,0.482085054135506,7,51741,5.7
"833","peak 1","19103",16.4285714285714,"Johnson","Iowa","Midwest",41.6715,-91.5881,148577,0.705739943471157,3,67295,4.8
"834","peak 1","19105",1.42857142857143,"Jones","Iowa","Midwest",42.1212,-91.1315,20559,0.383383383383383,2,63399,5.7
"835","peak 1","19107",0.571428571428571,"Keokuk","Iowa","Midwest",41.3365,-92.1786,10188,0.26664152366585,8,54937,4.9
"836","peak 1","19109",0.285714285714286,"Kossuth","Iowa","Midwest",43.2042,-94.2067,14978,0.296589658965897,7,59568,3.8
"837","peak 1","19111",2,"Lee","Iowa","Midwest",40.642,-91.4793,34227,0.390880841400741,5,51089,6.5
"838","peak 1","19113",31.7142857142857,"Linn","Iowa","Midwest",42.079,-91.599,223861,0.556057681746144,2,64783,6.4
